{
  "UAE": {
    "population_weighted": {
      "latitude": 24.9905,
      "longitude": 55.2373,
      "total_population": 12909069
    },
    "capital": {
      "name": "Dubai",
      "latitude": 25.0772,
      "longitude": 55.3093,
      "population": 3790000
    },
    "major_cities": [
      {
        "name": "Dubai",
        "latitude": 25.0772,
        "longitude": 55.3093,
        "population": 3790000
      },
      {
        "name": "Abu Dhabi",
        "latitude": 24.4512,
        "longitude": 54.397,
        "population": 1807000
      },
      {
        "name": "Sharjah",
        "latitude": 25.3342,
        "longitude": 55.4122,
        "population": 1800000
      },
      {
        "name": "Al Ain City",
        "latitude": 24.1917,
        "longitude": 55.7606,
        "population": 846747
      },
      {
        "name": "Ajman City",
        "latitude": 25.4018,
        "longitude": 55.4788,
        "population": 490035
      }
    ],
    "city_count": 62
  },
  "Afghanistan": {
    "population_weighted": {
      "latitude": 34.6116,
      "longitude": 67.9778,
      "total_population": 8545134
    },
    "capital": {
      "name": "Kabul",
      "latitude": 34.5281,
      "longitude": 69.1723,
      "population": 4434550
    },
    "major_cities": [
      {
        "name": "Kabul",
        "latitude": 34.5281,
        "longitude": 69.1723,
        "population": 4434550
      },
      {
        "name": "Her\u0101t",
        "latitude": 34.3482,
        "longitude": 62.1997,
        "population": 574300
      },
      {
        "name": "Maz\u0101r-e Shar\u012bf",
        "latitude": 36.709,
        "longitude": 67.1109,
        "population": 523300
      },
      {
        "name": "Kandah\u0101r",
        "latitude": 31.6133,
        "longitude": 65.7101,
        "population": 523300
      },
      {
        "name": "Jal\u0101l\u0101b\u0101d",
        "latitude": 34.4265,
        "longitude": 70.4515,
        "population": 271900
      }
    ],
    "city_count": 51
  },
  "Albania": {
    "population_weighted": {
      "latitude": 41.1307,
      "longitude": 19.8133,
      "total_population": 1591667
    },
    "capital": {
      "name": "Tirana",
      "latitude": 41.3274,
      "longitude": 19.8187,
      "population": 418495
    },
    "major_cities": [
      {
        "name": "Tirana",
        "latitude": 41.3274,
        "longitude": 19.8187,
        "population": 418495
      },
      {
        "name": "Durr\u00ebs",
        "latitude": 41.3235,
        "longitude": 19.4547,
        "population": 195920
      },
      {
        "name": "Vlor\u00eb",
        "latitude": 40.4696,
        "longitude": 19.4838,
        "population": 115261
      },
      {
        "name": "Elbasan",
        "latitude": 41.1114,
        "longitude": 20.0822,
        "population": 100903
      },
      {
        "name": "Shkod\u00ebr",
        "latitude": 42.0683,
        "longitude": 19.5126,
        "population": 95553
      }
    ],
    "city_count": 23
  },
  "Armenia": {
    "population_weighted": {
      "latitude": 40.2255,
      "longitude": 44.5251,
      "total_population": 2863366
    },
    "capital": {
      "name": "Yerevan",
      "latitude": 40.1776,
      "longitude": 44.5126,
      "population": 1141100
    },
    "major_cities": [
      {
        "name": "Yerevan",
        "latitude": 40.1776,
        "longitude": 44.5126,
        "population": 1141100
      },
      {
        "name": "Malatia-Sebastia",
        "latitude": 40.174,
        "longitude": 44.4457,
        "population": 150000
      },
      {
        "name": "Shengavit",
        "latitude": 40.1557,
        "longitude": 44.4779,
        "population": 140400
      },
      {
        "name": "Nor Nork",
        "latitude": 40.1966,
        "longitude": 44.5669,
        "population": 136900
      },
      {
        "name": "Kentron",
        "latitude": 40.1781,
        "longitude": 44.513,
        "population": 132800
      }
    ],
    "city_count": 29
  },
  "Angola": {
    "population_weighted": {
      "latitude": -10.3909,
      "longitude": 14.9935,
      "total_population": 12340354
    },
    "capital": {
      "name": "Luanda",
      "latitude": -8.8368,
      "longitude": 13.2343,
      "population": 2776168
    },
    "major_cities": [
      {
        "name": "Luanda",
        "latitude": -8.8368,
        "longitude": 13.2343,
        "population": 2776168
      },
      {
        "name": "Lubango",
        "latitude": -14.9172,
        "longitude": 13.4925,
        "population": 600751
      },
      {
        "name": "Huambo",
        "latitude": -12.7761,
        "longitude": 15.7392,
        "population": 595304
      },
      {
        "name": "Benguela",
        "latitude": -12.5767,
        "longitude": 13.4027,
        "population": 555124
      },
      {
        "name": "Cabinda",
        "latitude": -5.562,
        "longitude": 12.1948,
        "population": 550000
      }
    ],
    "city_count": 95
  },
  "Argentina": {
    "population_weighted": {
      "latitude": -32.7295,
      "longitude": -61.3496,
      "total_population": 22382048
    },
    "capital": {
      "name": "Buenos Aires",
      "latitude": -34.6131,
      "longitude": -58.3772,
      "population": 2891082
    },
    "major_cities": [
      {
        "name": "Buenos Aires",
        "latitude": -34.6131,
        "longitude": -58.3772,
        "population": 2891082
      },
      {
        "name": "C\u00f3rdoba",
        "latitude": -31.4065,
        "longitude": -64.1885,
        "population": 2106734
      },
      {
        "name": "Rosario",
        "latitude": -32.9468,
        "longitude": -60.6393,
        "population": 948312
      },
      {
        "name": "Mar del Plata",
        "latitude": -38.0004,
        "longitude": -57.5562,
        "population": 593337
      },
      {
        "name": "San Miguel de Tucum\u00e1n",
        "latitude": -26.816,
        "longitude": -65.2105,
        "population": 548866
      }
    ],
    "city_count": 248
  },
  "Austria": {
    "population_weighted": {
      "latitude": 47.9384,
      "longitude": 15.5166,
      "total_population": 5176091
    },
    "capital": {
      "name": "Vienna",
      "latitude": 48.2085,
      "longitude": 16.3721,
      "population": 1691468
    },
    "major_cities": [
      {
        "name": "Vienna",
        "latitude": 48.2085,
        "longitude": 16.3721,
        "population": 1691468
      },
      {
        "name": "Graz",
        "latitude": 47.0673,
        "longitude": 15.442,
        "population": 303270
      },
      {
        "name": "Linz",
        "latitude": 48.3064,
        "longitude": 14.2861,
        "population": 204846
      },
      {
        "name": "Favoriten",
        "latitude": 48.1612,
        "longitude": 16.3823,
        "population": 201882
      },
      {
        "name": "Donaustadt",
        "latitude": 48.2333,
        "longitude": 16.46,
        "population": 187007
      }
    ],
    "city_count": 63
  },
  "Australia": {
    "population_weighted": {
      "latitude": -33.4828,
      "longitude": 144.8954,
      "total_population": 29050682
    },
    "capital": {
      "name": "Sydney",
      "latitude": -33.8678,
      "longitude": 151.2073,
      "population": 5557233
    },
    "major_cities": [
      {
        "name": "Sydney",
        "latitude": -33.8678,
        "longitude": 151.2073,
        "population": 5557233
      },
      {
        "name": "Melbourne",
        "latitude": -37.814,
        "longitude": 144.9633,
        "population": 5350705
      },
      {
        "name": "Brisbane",
        "latitude": -27.4679,
        "longitude": 153.0281,
        "population": 2780063
      },
      {
        "name": "Perth",
        "latitude": -31.9522,
        "longitude": 115.8614,
        "population": 2309338
      },
      {
        "name": "Adelaide",
        "latitude": -34.9287,
        "longitude": 138.5986,
        "population": 1469163
      }
    ],
    "city_count": 308
  },
  "Azerbaijan": {
    "population_weighted": {
      "latitude": 40.3049,
      "longitude": 48.5758,
      "total_population": 4191633
    },
    "capital": {
      "name": "Baku",
      "latitude": 40.3777,
      "longitude": 49.892,
      "population": 1116513
    },
    "major_cities": [
      {
        "name": "Baku",
        "latitude": 40.3777,
        "longitude": 49.892,
        "population": 1116513
      },
      {
        "name": "Sumqay\u0131t",
        "latitude": 40.5897,
        "longitude": 49.6686,
        "population": 358675
      },
      {
        "name": "Ganja",
        "latitude": 40.6816,
        "longitude": 46.3613,
        "population": 335600
      },
      {
        "name": "Lankaran",
        "latitude": 38.7543,
        "longitude": 48.8506,
        "population": 240300
      },
      {
        "name": "Tovuz",
        "latitude": 40.9925,
        "longitude": 45.6284,
        "population": 177200
      }
    ],
    "city_count": 58
  },
  "Bosnia and Herzegovina": {
    "population_weighted": {
      "latitude": 44.177,
      "longitude": 17.9706,
      "total_population": 1905798
    },
    "capital": {
      "name": "Sarajevo",
      "latitude": 43.8486,
      "longitude": 18.3564,
      "population": 696731
    },
    "major_cities": [
      {
        "name": "Sarajevo",
        "latitude": 43.8486,
        "longitude": 18.3564,
        "population": 696731
      },
      {
        "name": "Banja Luka",
        "latitude": 44.7788,
        "longitude": 17.2063,
        "population": 221106
      },
      {
        "name": "Zenica",
        "latitude": 44.2017,
        "longitude": 17.904,
        "population": 164423
      },
      {
        "name": "Tuzla",
        "latitude": 44.5384,
        "longitude": 18.6671,
        "population": 142486
      },
      {
        "name": "Mostar",
        "latitude": 43.3433,
        "longitude": 17.8081,
        "population": 104518
      }
    ],
    "city_count": 23
  },
  "Barbados": {
    "population_weighted": {
      "latitude": 13.1073,
      "longitude": -59.6202,
      "total_population": 98511
    },
    "capital": {
      "name": "Bridgetown",
      "latitude": 13.1073,
      "longitude": -59.6202,
      "population": 98511
    },
    "major_cities": [
      {
        "name": "Bridgetown",
        "latitude": 13.1073,
        "longitude": -59.6202,
        "population": 98511
      }
    ],
    "city_count": 1
  },
  "Bangladesh": {
    "population_weighted": {
      "latitude": 23.6462,
      "longitude": 90.4281,
      "total_population": 36507102
    },
    "capital": {
      "name": "Dhaka",
      "latitude": 23.7104,
      "longitude": 90.4074,
      "population": 10356500
    },
    "major_cities": [
      {
        "name": "Dhaka",
        "latitude": 23.7104,
        "longitude": 90.4074,
        "population": 10356500
      },
      {
        "name": "Chattogram",
        "latitude": 22.3384,
        "longitude": 91.8317,
        "population": 3920222
      },
      {
        "name": "Gazipur",
        "latitude": 23.9984,
        "longitude": 90.4223,
        "population": 2674697
      },
      {
        "name": "Khulna",
        "latitude": 22.8098,
        "longitude": 89.5644,
        "population": 1500689
      },
      {
        "name": "Rangpur",
        "latitude": 25.7466,
        "longitude": 89.2517,
        "population": 1031388
      }
    ],
    "city_count": 136
  },
  "Belgium": {
    "population_weighted": {
      "latitude": 50.8905,
      "longitude": 4.3746,
      "total_population": 9038306
    },
    "capital": {
      "name": "Brussels",
      "latitude": 50.8505,
      "longitude": 4.3488,
      "population": 1019022
    },
    "major_cities": [
      {
        "name": "Brussels",
        "latitude": 50.8505,
        "longitude": 4.3488,
        "population": 1019022
      },
      {
        "name": "Antwerpen",
        "latitude": 51.2205,
        "longitude": 4.4003,
        "population": 529247
      },
      {
        "name": "Gent",
        "latitude": 51.05,
        "longitude": 3.7167,
        "population": 265086
      },
      {
        "name": "Charleroi",
        "latitude": 50.4114,
        "longitude": 4.4445,
        "population": 200132
      },
      {
        "name": "Li\u00e8ge",
        "latitude": 50.6337,
        "longitude": 5.5675,
        "population": 195278
      }
    ],
    "city_count": 223
  },
  "Burkina Faso": {
    "population_weighted": {
      "latitude": 12.1496,
      "longitude": -2.0833,
      "total_population": 6098974
    },
    "capital": {
      "name": "Ouagadougou",
      "latitude": 12.3657,
      "longitude": -1.5339,
      "population": 2415266
    },
    "major_cities": [
      {
        "name": "Ouagadougou",
        "latitude": 12.3657,
        "longitude": -1.5339,
        "population": 2415266
      },
      {
        "name": "Bobo-Dioulasso",
        "latitude": 11.1771,
        "longitude": -4.2979,
        "population": 904920
      },
      {
        "name": "Koudougou",
        "latitude": 12.2526,
        "longitude": -2.3627,
        "population": 160239
      },
      {
        "name": "Saaba",
        "latitude": 12.3714,
        "longitude": -1.4147,
        "population": 136011
      },
      {
        "name": "Ouahigouya",
        "latitude": 13.5828,
        "longitude": -2.4216,
        "population": 124587
      }
    ],
    "city_count": 73
  },
  "Bulgaria": {
    "population_weighted": {
      "latitude": 42.7201,
      "longitude": 24.9203,
      "total_population": 4250077
    },
    "capital": {
      "name": "Sofia",
      "latitude": 42.6975,
      "longitude": 23.3241,
      "population": 1152556
    },
    "major_cities": [
      {
        "name": "Sofia",
        "latitude": 42.6975,
        "longitude": 23.3241,
        "population": 1152556
      },
      {
        "name": "Plovdiv",
        "latitude": 42.1539,
        "longitude": 24.75,
        "population": 346893
      },
      {
        "name": "Varna",
        "latitude": 43.2191,
        "longitude": 27.9102,
        "population": 312770
      },
      {
        "name": "Burgas",
        "latitude": 42.5065,
        "longitude": 27.4689,
        "population": 195966
      },
      {
        "name": "Stara Zagora",
        "latitude": 42.432,
        "longitude": 25.6426,
        "population": 143431
      }
    ],
    "city_count": 56
  },
  "Bahrain": {
    "population_weighted": {
      "latitude": 26.1793,
      "longitude": 50.5658,
      "total_population": 815447
    },
    "capital": {
      "name": "Al Muharraq",
      "latitude": 26.2572,
      "longitude": 50.6119,
      "population": 176583
    },
    "major_cities": [
      {
        "name": "Al Muharraq",
        "latitude": 26.2572,
        "longitude": 50.6119,
        "population": 176583
      },
      {
        "name": "Manama",
        "latitude": 26.2279,
        "longitude": 50.5857,
        "population": 147074
      },
      {
        "name": "Mad\u012bnat \u1e28amad",
        "latitude": 26.1153,
        "longitude": 50.5069,
        "population": 133550
      },
      {
        "name": "Ar Rif\u0101\u2018",
        "latitude": 26.13,
        "longitude": 50.555,
        "population": 115495
      },
      {
        "name": "Sitrah",
        "latitude": 26.1547,
        "longitude": 50.6206,
        "population": 72601
      }
    ],
    "city_count": 8
  },
  "Benin": {
    "population_weighted": {
      "latitude": 7.6392,
      "longitude": 2.3314,
      "total_population": 3984664
    },
    "capital": {
      "name": "Cotonou",
      "latitude": 6.3654,
      "longitude": 2.4183,
      "population": 679012
    },
    "major_cities": [
      {
        "name": "Cotonou",
        "latitude": 6.3654,
        "longitude": 2.4183,
        "population": 679012
      },
      {
        "name": "Abomey-Calavi",
        "latitude": 6.4485,
        "longitude": 2.3557,
        "population": 385755
      },
      {
        "name": "Porto-Novo",
        "latitude": 6.4965,
        "longitude": 2.6036,
        "population": 264320
      },
      {
        "name": "Parakou",
        "latitude": 9.3372,
        "longitude": 2.6303,
        "population": 255478
      },
      {
        "name": "Godom\u00e8",
        "latitude": 6.3895,
        "longitude": 2.3458,
        "population": 253262
      }
    ],
    "city_count": 65
  },
  "Brunei": {
    "population_weighted": {
      "latitude": 4.8207,
      "longitude": 114.7379,
      "total_population": 260513
    },
    "capital": {
      "name": "Bandar Seri Begawan",
      "latitude": 4.8903,
      "longitude": 114.9401,
      "population": 64409
    },
    "major_cities": [
      {
        "name": "Bandar Seri Begawan",
        "latitude": 4.8903,
        "longitude": 114.9401,
        "population": 64409
      },
      {
        "name": "Sengkurong",
        "latitude": 4.8833,
        "longitude": 114.8333,
        "population": 40972
      },
      {
        "name": "Mentiri",
        "latitude": 4.9706,
        "longitude": 115.0208,
        "population": 39324
      },
      {
        "name": "Kuala Belait",
        "latitude": 4.5836,
        "longitude": 114.2312,
        "population": 31178
      },
      {
        "name": "Seria",
        "latitude": 4.6064,
        "longitude": 114.3248,
        "population": 30097
      }
    ],
    "city_count": 8
  },
  "Bolivia": {
    "population_weighted": {
      "latitude": -17.3862,
      "longitude": -65.7867,
      "total_population": 6958595
    },
    "capital": {
      "name": "La Paz",
      "latitude": -16.5,
      "longitude": -68.15,
      "population": 2004652
    },
    "major_cities": [
      {
        "name": "La Paz",
        "latitude": -16.5,
        "longitude": -68.15,
        "population": 2004652
      },
      {
        "name": "Santa Cruz de la Sierra",
        "latitude": -17.7863,
        "longitude": -63.1812,
        "population": 1831434
      },
      {
        "name": "Cochabamba",
        "latitude": -17.3819,
        "longitude": -66.1599,
        "population": 841276
      },
      {
        "name": "Sucre",
        "latitude": -19.0333,
        "longitude": -65.2627,
        "population": 224838
      },
      {
        "name": "Oruro",
        "latitude": -17.9715,
        "longitude": -67.0932,
        "population": 208684
      }
    ],
    "city_count": 39
  },
  "Brazil": {
    "population_weighted": {
      "latitude": -17.4525,
      "longitude": -45.8467,
      "total_population": 194228305
    },
    "capital": {
      "name": "S\u00e3o Paulo",
      "latitude": -23.5475,
      "longitude": -46.6361,
      "population": 12400232
    },
    "major_cities": [
      {
        "name": "S\u00e3o Paulo",
        "latitude": -23.5475,
        "longitude": -46.6361,
        "population": 12400232
      },
      {
        "name": "Rio de Janeiro",
        "latitude": -22.9064,
        "longitude": -43.1822,
        "population": 6747815
      },
      {
        "name": "Belo Horizonte",
        "latitude": -19.9208,
        "longitude": -43.9378,
        "population": 2721564
      },
      {
        "name": "Salvador",
        "latitude": -12.9756,
        "longitude": -38.491,
        "population": 2711840
      },
      {
        "name": "Fortaleza",
        "latitude": -3.7172,
        "longitude": -38.5431,
        "population": 2400000
      }
    ],
    "city_count": 2345
  },
  "Bahamas": {
    "population_weighted": {
      "latitude": 25.3973,
      "longitude": -77.6546,
      "total_population": 319054
    },
    "capital": {
      "name": "Nassau",
      "latitude": 25.0582,
      "longitude": -77.3431,
      "population": 227940
    },
    "major_cities": [
      {
        "name": "Nassau",
        "latitude": 25.0582,
        "longitude": -77.3431,
        "population": 227940
      },
      {
        "name": "Lucaya",
        "latitude": 26.5333,
        "longitude": -78.6667,
        "population": 46525
      },
      {
        "name": "Freeport",
        "latitude": 26.5333,
        "longitude": -78.7,
        "population": 26910
      },
      {
        "name": "Killarney",
        "latitude": 25.05,
        "longitude": -77.4167,
        "population": 17679
      }
    ],
    "city_count": 4
  },
  "Bhutan": {
    "population_weighted": {
      "latitude": 27.3237,
      "longitude": 89.6937,
      "total_population": 170210
    },
    "capital": {
      "name": "Thimphu",
      "latitude": 27.4661,
      "longitude": 89.6419,
      "population": 98676
    },
    "major_cities": [
      {
        "name": "Thimphu",
        "latitude": 27.4661,
        "longitude": 89.6419,
        "population": 98676
      },
      {
        "name": "Phuntsholing",
        "latitude": 26.8516,
        "longitude": 89.3884,
        "population": 27658
      },
      {
        "name": "Tsirang",
        "latitude": 27.0219,
        "longitude": 90.1229,
        "population": 22376
      },
      {
        "name": "Pun\u0101kha",
        "latitude": 27.5914,
        "longitude": 89.8774,
        "population": 21500
      }
    ],
    "city_count": 4
  },
  "Botswana": {
    "population_weighted": {
      "latitude": -23.4285,
      "longitude": 25.9863,
      "total_population": 1262880
    },
    "capital": {
      "name": "Gaborone",
      "latitude": -24.6545,
      "longitude": 25.9086,
      "population": 246325
    },
    "major_cities": [
      {
        "name": "Gaborone",
        "latitude": -24.6545,
        "longitude": 25.9086,
        "population": 246325
      },
      {
        "name": "Francistown",
        "latitude": -21.17,
        "longitude": 27.5078,
        "population": 103417
      },
      {
        "name": "Mogoditshane",
        "latitude": -24.6269,
        "longitude": 25.8656,
        "population": 88004
      },
      {
        "name": "Maun",
        "latitude": -19.9833,
        "longitude": 23.4167,
        "population": 85350
      },
      {
        "name": "Molepolole",
        "latitude": -24.4066,
        "longitude": 25.4951,
        "population": 74861
      }
    ],
    "city_count": 25
  },
  "Belarus": {
    "population_weighted": {
      "latitude": 53.5645,
      "longitude": 27.8213,
      "total_population": 6140850
    },
    "capital": {
      "name": "Minsk",
      "latitude": 53.9002,
      "longitude": 27.5665,
      "population": 1742124
    },
    "major_cities": [
      {
        "name": "Minsk",
        "latitude": 53.9002,
        "longitude": 27.5665,
        "population": 1742124
      },
      {
        "name": "Homyel'",
        "latitude": 52.4345,
        "longitude": 30.9754,
        "population": 501102
      },
      {
        "name": "Hrodna",
        "latitude": 53.6758,
        "longitude": 23.8289,
        "population": 361115
      },
      {
        "name": "Vitebsk",
        "latitude": 55.1904,
        "longitude": 30.2049,
        "population": 358395
      },
      {
        "name": "Mahilyow",
        "latitude": 53.9088,
        "longitude": 30.3404,
        "population": 353110
      }
    ],
    "city_count": 57
  },
  "Belize": {
    "population_weighted": {
      "latitude": 17.6115,
      "longitude": -88.2834,
      "total_population": 110018
    },
    "capital": {
      "name": "Belize City",
      "latitude": 17.4995,
      "longitude": -88.1976,
      "population": 65222
    },
    "major_cities": [
      {
        "name": "Belize City",
        "latitude": 17.4995,
        "longitude": -88.1976,
        "population": 65222
      },
      {
        "name": "San Pedro",
        "latitude": 17.916,
        "longitude": -87.9659,
        "population": 16117
      },
      {
        "name": "Orange Walk",
        "latitude": 18.0812,
        "longitude": -88.5633,
        "population": 15298
      },
      {
        "name": "Belmopan",
        "latitude": 17.2538,
        "longitude": -88.764,
        "population": 13381
      }
    ],
    "city_count": 4
  },
  "Canada": {
    "population_weighted": {
      "latitude": 46.4361,
      "longitude": -89.4971,
      "total_population": 34490182
    },
    "capital": {
      "name": "Toronto",
      "latitude": 43.7064,
      "longitude": -79.3986,
      "population": 2794356
    },
    "major_cities": [
      {
        "name": "Toronto",
        "latitude": 43.7064,
        "longitude": -79.3986,
        "population": 2794356
      },
      {
        "name": "Montr\u00e9al",
        "latitude": 45.5088,
        "longitude": -73.5878,
        "population": 1762949
      },
      {
        "name": "Calgary",
        "latitude": 51.0501,
        "longitude": -114.0853,
        "population": 1306784
      },
      {
        "name": "Ottawa",
        "latitude": 45.4112,
        "longitude": -75.6981,
        "population": 1017449
      },
      {
        "name": "Edmonton",
        "latitude": 53.5501,
        "longitude": -113.4687,
        "population": 1010899
      }
    ],
    "city_count": 435
  },
  "DR Congo": {
    "population_weighted": {
      "latitude": -4.7212,
      "longitude": 20.2285,
      "total_population": 37196550
    },
    "capital": {
      "name": "Kinshasa",
      "latitude": -4.3276,
      "longitude": 15.3136,
      "population": 16000000
    },
    "major_cities": [
      {
        "name": "Kinshasa",
        "latitude": -4.3276,
        "longitude": 15.3136,
        "population": 16000000
      },
      {
        "name": "Lubumbashi",
        "latitude": -11.6609,
        "longitude": 27.4794,
        "population": 2221925
      },
      {
        "name": "Mbuji-Mayi",
        "latitude": -6.136,
        "longitude": 23.5898,
        "population": 2101332
      },
      {
        "name": "Kananga",
        "latitude": -5.8962,
        "longitude": 22.4166,
        "population": 1247168
      },
      {
        "name": "Kisangani",
        "latitude": 0.5153,
        "longitude": 25.191,
        "population": 1181788
      }
    ],
    "city_count": 113
  },
  "Central African Republic": {
    "population_weighted": {
      "latitude": 4.9407,
      "longitude": 18.3478,
      "total_population": 2562033
    },
    "capital": {
      "name": "Bangui",
      "latitude": 4.3612,
      "longitude": 18.555,
      "population": 812407
    },
    "major_cities": [
      {
        "name": "Bangui",
        "latitude": 4.3612,
        "longitude": 18.555,
        "population": 812407
      },
      {
        "name": "Bimbo",
        "latitude": 4.2567,
        "longitude": 18.4158,
        "population": 348802
      },
      {
        "name": "B\u00e9goua",
        "latitude": 4.4544,
        "longitude": 18.5347,
        "population": 264067
      },
      {
        "name": "Carnot",
        "latitude": 4.9427,
        "longitude": 15.8773,
        "population": 129032
      },
      {
        "name": "Berb\u00e9rati",
        "latitude": 4.2612,
        "longitude": 15.7922,
        "population": 103713
      }
    ],
    "city_count": 32
  },
  "Switzerland": {
    "population_weighted": {
      "latitude": 47.0663,
      "longitude": 7.9534,
      "total_population": 3440110
    },
    "capital": {
      "name": "Z\u00fcrich",
      "latitude": 47.3667,
      "longitude": 8.55,
      "population": 415367
    },
    "major_cities": [
      {
        "name": "Z\u00fcrich",
        "latitude": 47.3667,
        "longitude": 8.55,
        "population": 415367
      },
      {
        "name": "Gen\u00e8ve",
        "latitude": 46.2022,
        "longitude": 6.1457,
        "population": 201741
      },
      {
        "name": "Basel",
        "latitude": 47.5584,
        "longitude": 7.5733,
        "population": 177595
      },
      {
        "name": "Lausanne",
        "latitude": 46.516,
        "longitude": 6.6328,
        "population": 139111
      },
      {
        "name": "Bern",
        "latitude": 46.9481,
        "longitude": 7.4474,
        "population": 121631
      }
    ],
    "city_count": 94
  },
  "Ivory Coast": {
    "population_weighted": {
      "latitude": 6.1596,
      "longitude": -4.8924,
      "total_population": 17496811
    },
    "capital": {
      "name": "Abidjan",
      "latitude": 5.3544,
      "longitude": -4.0017,
      "population": 6321017
    },
    "major_cities": [
      {
        "name": "Abidjan",
        "latitude": 5.3544,
        "longitude": -4.0017,
        "population": 6321017
      },
      {
        "name": "Abobo",
        "latitude": 5.4161,
        "longitude": -4.0159,
        "population": 1340083
      },
      {
        "name": "Bouak\u00e9",
        "latitude": 7.6939,
        "longitude": -5.0303,
        "population": 832371
      },
      {
        "name": "Korhogo",
        "latitude": 9.458,
        "longitude": -5.6296,
        "population": 440926
      },
      {
        "name": "Daloa",
        "latitude": 6.8773,
        "longitude": -6.4502,
        "population": 421871
      }
    ],
    "city_count": 183
  },
  "Chile": {
    "population_weighted": {
      "latitude": -33.6881,
      "longitude": -71.1938,
      "total_population": 15974349
    },
    "capital": {
      "name": "Santiago",
      "latitude": -33.4569,
      "longitude": -70.6483,
      "population": 4837295
    },
    "major_cities": [
      {
        "name": "Santiago",
        "latitude": -33.4569,
        "longitude": -70.6483,
        "population": 4837295
      },
      {
        "name": "Puente Alto",
        "latitude": -33.6117,
        "longitude": -70.5758,
        "population": 568106
      },
      {
        "name": "Maip\u00fa",
        "latitude": -33.5142,
        "longitude": -70.7651,
        "population": 503635
      },
      {
        "name": "Antofagasta",
        "latitude": -23.6509,
        "longitude": -70.3975,
        "population": 401096
      },
      {
        "name": "Vi\u00f1a del Mar",
        "latitude": -33.0246,
        "longitude": -71.5518,
        "population": 334248
      }
    ],
    "city_count": 145
  },
  "Cameroon": {
    "population_weighted": {
      "latitude": 5.4122,
      "longitude": 11.1873,
      "total_population": 8301666
    },
    "capital": {
      "name": "Douala",
      "latitude": 4.0483,
      "longitude": 9.7043,
      "population": 1338082
    },
    "major_cities": [
      {
        "name": "Douala",
        "latitude": 4.0483,
        "longitude": 9.7043,
        "population": 1338082
      },
      {
        "name": "Yaound\u00e9",
        "latitude": 3.8667,
        "longitude": 11.5167,
        "population": 1299369
      },
      {
        "name": "Bamenda",
        "latitude": 5.9597,
        "longitude": 10.146,
        "population": 420445
      },
      {
        "name": "Bafoussam",
        "latitude": 5.4778,
        "longitude": 10.4176,
        "population": 373268
      },
      {
        "name": "Maroua",
        "latitude": 10.5909,
        "longitude": 14.3159,
        "population": 314122
      }
    ],
    "city_count": 86
  },
  "China": {
    "population_weighted": {
      "latitude": 31.9114,
      "longitude": 114.2214,
      "total_population": 693869802
    },
    "capital": {
      "name": "Shanghai",
      "latitude": 31.2222,
      "longitude": 121.4581,
      "population": 24874500
    },
    "major_cities": [
      {
        "name": "Shanghai",
        "latitude": 31.2222,
        "longitude": 121.4581,
        "population": 24874500
      },
      {
        "name": "Beijing",
        "latitude": 39.9075,
        "longitude": 116.3972,
        "population": 18960744
      },
      {
        "name": "Shenzhen",
        "latitude": 22.5455,
        "longitude": 114.0683,
        "population": 17494398
      },
      {
        "name": "Guangzhou",
        "latitude": 23.1167,
        "longitude": 113.25,
        "population": 16096724
      },
      {
        "name": "Chengdu",
        "latitude": 30.6667,
        "longitude": 104.0667,
        "population": 13568357
      }
    ],
    "city_count": 2036
  },
  "Colombia": {
    "population_weighted": {
      "latitude": 5.962,
      "longitude": -74.8701,
      "total_population": 36238861
    },
    "capital": {
      "name": "Bogot\u00e1",
      "latitude": 4.6097,
      "longitude": -74.0817,
      "population": 7674366
    },
    "major_cities": [
      {
        "name": "Bogot\u00e1",
        "latitude": 4.6097,
        "longitude": -74.0817,
        "population": 7674366
      },
      {
        "name": "Cali",
        "latitude": 3.4305,
        "longitude": -76.5199,
        "population": 2392877
      },
      {
        "name": "Medell\u00edn",
        "latitude": 6.245,
        "longitude": -75.5715,
        "population": 1999979
      },
      {
        "name": "Barranquilla",
        "latitude": 10.9685,
        "longitude": -74.7813,
        "population": 1206319
      },
      {
        "name": "Cartagena",
        "latitude": 10.3982,
        "longitude": -75.4933,
        "population": 914552
      }
    ],
    "city_count": 317
  },
  "Costa Rica": {
    "population_weighted": {
      "latitude": 9.9876,
      "longitude": -84.1447,
      "total_population": 1458629
    },
    "capital": {
      "name": "San Jos\u00e9",
      "latitude": 9.9339,
      "longitude": -84.0849,
      "population": 335007
    },
    "major_cities": [
      {
        "name": "San Jos\u00e9",
        "latitude": 9.9339,
        "longitude": -84.0849,
        "population": 335007
      },
      {
        "name": "Lim\u00f3n",
        "latitude": 9.9907,
        "longitude": -83.036,
        "population": 63081
      },
      {
        "name": "San Francisco",
        "latitude": 9.9938,
        "longitude": -84.1274,
        "population": 55923
      },
      {
        "name": "Alajuela",
        "latitude": 10.0172,
        "longitude": -84.2127,
        "population": 47494
      },
      {
        "name": "Liberia",
        "latitude": 10.6352,
        "longitude": -85.4378,
        "population": 45380
      }
    ],
    "city_count": 41
  },
  "Cuba": {
    "population_weighted": {
      "latitude": 22.2068,
      "longitude": -80.2532,
      "total_population": 11972822
    },
    "capital": {
      "name": "Havana",
      "latitude": 23.133,
      "longitude": -82.383,
      "population": 2163824
    },
    "major_cities": [
      {
        "name": "Havana",
        "latitude": 23.133,
        "longitude": -82.383,
        "population": 2163824
      },
      {
        "name": "Santiago de Cuba",
        "latitude": 20.0229,
        "longitude": -75.8217,
        "population": 555865
      },
      {
        "name": "Camag\u00fcey",
        "latitude": 21.3808,
        "longitude": -77.9169,
        "population": 347562
      },
      {
        "name": "Holgu\u00edn",
        "latitude": 20.8872,
        "longitude": -76.2631,
        "population": 319102
      },
      {
        "name": "Guant\u00e1namo",
        "latitude": 20.1444,
        "longitude": -75.2092,
        "population": 272801
      }
    ],
    "city_count": 140
  },
  "Cyprus": {
    "population_weighted": {
      "latitude": 35.0001,
      "longitude": 33.3144,
      "total_population": 789379
    },
    "capital": {
      "name": "Nicosia",
      "latitude": 35.1728,
      "longitude": 33.354,
      "population": 200452
    },
    "major_cities": [
      {
        "name": "Nicosia",
        "latitude": 35.1728,
        "longitude": 33.354,
        "population": 200452
      },
      {
        "name": "Limassol",
        "latitude": 34.6841,
        "longitude": 33.0379,
        "population": 154000
      },
      {
        "name": "Larnaca",
        "latitude": 34.9221,
        "longitude": 33.6279,
        "population": 72000
      },
      {
        "name": "Str\u00f3volos",
        "latitude": 35.1487,
        "longitude": 33.3338,
        "population": 67904
      },
      {
        "name": "Famagusta",
        "latitude": 35.1249,
        "longitude": 33.9413,
        "population": 42526
      }
    ],
    "city_count": 15
  },
  "Czech Republic": {
    "population_weighted": {
      "latitude": 49.9184,
      "longitude": 15.4054,
      "total_population": 5824803
    },
    "capital": {
      "name": "Prague",
      "latitude": 50.088,
      "longitude": 14.4208,
      "population": 1165581
    },
    "major_cities": [
      {
        "name": "Prague",
        "latitude": 50.088,
        "longitude": 14.4208,
        "population": 1165581
      },
      {
        "name": "Brno",
        "latitude": 49.1952,
        "longitude": 16.608,
        "population": 379466
      },
      {
        "name": "Ostrava",
        "latitude": 49.8347,
        "longitude": 18.282,
        "population": 279791
      },
      {
        "name": "Pilsen",
        "latitude": 49.7475,
        "longitude": 13.3776,
        "population": 168733
      },
      {
        "name": "Liberec",
        "latitude": 50.7671,
        "longitude": 15.0562,
        "population": 102951
      }
    ],
    "city_count": 120
  },
  "Germany": {
    "population_weighted": {
      "latitude": 51.2526,
      "longitude": 9.6556,
      "total_population": 61461311
    },
    "capital": {
      "name": "Berlin",
      "latitude": 52.5244,
      "longitude": 13.4105,
      "population": 3426354
    },
    "major_cities": [
      {
        "name": "Berlin",
        "latitude": 52.5244,
        "longitude": 13.4105,
        "population": 3426354
      },
      {
        "name": "Hamburg",
        "latitude": 53.5507,
        "longitude": 9.993,
        "population": 1845229
      },
      {
        "name": "Munich",
        "latitude": 48.1374,
        "longitude": 11.5755,
        "population": 1260391
      },
      {
        "name": "K\u00f6ln",
        "latitude": 50.9333,
        "longitude": 6.95,
        "population": 963395
      },
      {
        "name": "Frankfurt am Main",
        "latitude": 50.1155,
        "longitude": 8.6842,
        "population": 650000
      }
    ],
    "city_count": 1119
  },
  "Denmark": {
    "population_weighted": {
      "latitude": 55.7923,
      "longitude": 11.4081,
      "total_population": 3805655
    },
    "capital": {
      "name": "Copenhagen",
      "latitude": 55.6759,
      "longitude": 12.5655,
      "population": 1153615
    },
    "major_cities": [
      {
        "name": "Copenhagen",
        "latitude": 55.6759,
        "longitude": 12.5655,
        "population": 1153615
      },
      {
        "name": "\u00c5rhus",
        "latitude": 56.1567,
        "longitude": 10.2108,
        "population": 285273
      },
      {
        "name": "Odense",
        "latitude": 55.3959,
        "longitude": 10.3883,
        "population": 180863
      },
      {
        "name": "Aalborg",
        "latitude": 57.048,
        "longitude": 9.9187,
        "population": 142937
      },
      {
        "name": "Frederiksberg",
        "latitude": 55.6794,
        "longitude": 12.5346,
        "population": 95029
      }
    ],
    "city_count": 63
  },
  "Dominican Republic": {
    "population_weighted": {
      "latitude": 18.7535,
      "longitude": -70.0762,
      "total_population": 7483502
    },
    "capital": {
      "name": "Santo Domingo",
      "latitude": 18.4719,
      "longitude": -69.8923,
      "population": 2201941
    },
    "major_cities": [
      {
        "name": "Santo Domingo",
        "latitude": 18.4719,
        "longitude": -69.8923,
        "population": 2201941
      },
      {
        "name": "Santiago de los Caballeros",
        "latitude": 19.4504,
        "longitude": -70.6908,
        "population": 1200000
      },
      {
        "name": "Santo Domingo Oeste",
        "latitude": 18.5,
        "longitude": -70.0,
        "population": 701269
      },
      {
        "name": "Santo Domingo Este",
        "latitude": 18.4851,
        "longitude": -69.8476,
        "population": 700000
      },
      {
        "name": "San Pedro de Macor\u00eds",
        "latitude": 18.4539,
        "longitude": -69.3086,
        "population": 217899
      }
    ],
    "city_count": 49
  },
  "Algeria": {
    "population_weighted": {
      "latitude": 35.6182,
      "longitude": 3.5482,
      "total_population": 20012338
    },
    "capital": {
      "name": "Algiers",
      "latitude": 36.7323,
      "longitude": 3.0875,
      "population": 2364230
    },
    "major_cities": [
      {
        "name": "Algiers",
        "latitude": 36.7323,
        "longitude": 3.0875,
        "population": 2364230
      },
      {
        "name": "Oran",
        "latitude": 35.6991,
        "longitude": -0.6359,
        "population": 803329
      },
      {
        "name": "Constantine",
        "latitude": 36.365,
        "longitude": 6.6147,
        "population": 448028
      },
      {
        "name": "Annaba",
        "latitude": 36.9,
        "longitude": 7.7667,
        "population": 342703
      },
      {
        "name": "Blida",
        "latitude": 36.47,
        "longitude": 2.8277,
        "population": 331779
      }
    ],
    "city_count": 292
  },
  "Ecuador": {
    "population_weighted": {
      "latitude": -1.4037,
      "longitude": -79.2898,
      "total_population": 11564603
    },
    "capital": {
      "name": "Quito",
      "latitude": -0.2298,
      "longitude": -78.525,
      "population": 2781641
    },
    "major_cities": [
      {
        "name": "Quito",
        "latitude": -0.2298,
        "longitude": -78.525,
        "population": 2781641
      },
      {
        "name": "Guayaquil",
        "latitude": -2.1962,
        "longitude": -79.8862,
        "population": 2723665
      },
      {
        "name": "Cuenca",
        "latitude": -2.8953,
        "longitude": -78.9963,
        "population": 636996
      },
      {
        "name": "Santo Domingo de los Colorados",
        "latitude": -0.2537,
        "longitude": -79.1763,
        "population": 458580
      },
      {
        "name": "Ambato",
        "latitude": -1.2491,
        "longitude": -78.6167,
        "population": 387309
      }
    ],
    "city_count": 71
  },
  "Estonia": {
    "population_weighted": {
      "latitude": 59.1989,
      "longitude": 25.4238,
      "total_population": 688922
    },
    "capital": {
      "name": "Tallinn",
      "latitude": 59.437,
      "longitude": 24.7535,
      "population": 394024
    },
    "major_cities": [
      {
        "name": "Tallinn",
        "latitude": 59.437,
        "longitude": 24.7535,
        "population": 394024
      },
      {
        "name": "Tartu",
        "latitude": 58.3806,
        "longitude": 26.7251,
        "population": 91407
      },
      {
        "name": "Narva",
        "latitude": 59.3772,
        "longitude": 28.1903,
        "population": 54409
      },
      {
        "name": "P\u00e4rnu",
        "latitude": 58.3859,
        "longitude": 24.4971,
        "population": 40228
      },
      {
        "name": "N\u00f5mme",
        "latitude": 59.3776,
        "longitude": 24.6859,
        "population": 39422
      }
    ],
    "city_count": 8
  },
  "Egypt": {
    "population_weighted": {
      "latitude": 29.8945,
      "longitude": 31.1881,
      "total_population": 45547889
    },
    "capital": {
      "name": "Cairo",
      "latitude": 30.0626,
      "longitude": 31.2497,
      "population": 9606916
    },
    "major_cities": [
      {
        "name": "Cairo",
        "latitude": 30.0626,
        "longitude": 31.2497,
        "population": 9606916
      },
      {
        "name": "Alexandria",
        "latitude": 31.2018,
        "longitude": 29.9158,
        "population": 5263542
      },
      {
        "name": "Giza",
        "latitude": 30.0094,
        "longitude": 31.2086,
        "population": 4367343
      },
      {
        "name": "Shubr\u0101 al Khaymah",
        "latitude": 30.1251,
        "longitude": 31.2505,
        "population": 1240289
      },
      {
        "name": "Port Said",
        "latitude": 31.2653,
        "longitude": 32.3019,
        "population": 780515
      }
    ],
    "city_count": 231
  },
  "Eritrea": {
    "population_weighted": {
      "latitude": 15.2465,
      "longitude": 38.8362,
      "total_population": 762902
    },
    "capital": {
      "name": "Asmara",
      "latitude": 15.3381,
      "longitude": 38.9318,
      "population": 563930
    },
    "major_cities": [
      {
        "name": "Asmara",
        "latitude": 15.3381,
        "longitude": 38.9318,
        "population": 563930
      },
      {
        "name": "Keren",
        "latitude": 15.7779,
        "longitude": 38.4511,
        "population": 74800
      },
      {
        "name": "Himora",
        "latitude": 14.3043,
        "longitude": 36.606,
        "population": 46100
      },
      {
        "name": "Massawa",
        "latitude": 15.6081,
        "longitude": 39.4746,
        "population": 23100
      },
      {
        "name": "Assab",
        "latitude": 13.0092,
        "longitude": 42.7394,
        "population": 21300
      }
    ],
    "city_count": 7
  },
  "Spain": {
    "population_weighted": {
      "latitude": 39.6862,
      "longitude": -2.9109,
      "total_population": 45022739
    },
    "capital": {
      "name": "Madrid",
      "latitude": 40.4165,
      "longitude": -3.7026,
      "population": 3255944
    },
    "major_cities": [
      {
        "name": "Madrid",
        "latitude": 40.4165,
        "longitude": -3.7026,
        "population": 3255944
      },
      {
        "name": "Barcelona",
        "latitude": 41.3888,
        "longitude": 2.159,
        "population": 1686208
      },
      {
        "name": "Valencia",
        "latitude": 39.4739,
        "longitude": -0.3797,
        "population": 824340
      },
      {
        "name": "Zaragoza",
        "latitude": 41.6561,
        "longitude": -0.8773,
        "population": 686986
      },
      {
        "name": "Sevilla",
        "latitude": 37.3828,
        "longitude": -5.9732,
        "population": 686741
      }
    ],
    "city_count": 735
  },
  "Ethiopia": {
    "population_weighted": {
      "latitude": 9.3072,
      "longitude": 38.8583,
      "total_population": 18002087
    },
    "capital": {
      "name": "Addis Ababa",
      "latitude": 9.025,
      "longitude": 38.7469,
      "population": 3860000
    },
    "major_cities": [
      {
        "name": "Addis Ababa",
        "latitude": 9.025,
        "longitude": 38.7469,
        "population": 3860000
      },
      {
        "name": "Jijiga",
        "latitude": 9.35,
        "longitude": 42.8,
        "population": 483000
      },
      {
        "name": "Gonder",
        "latitude": 12.6,
        "longitude": 37.4667,
        "population": 466000
      },
      {
        "name": "Mek'ele",
        "latitude": 13.4967,
        "longitude": 39.4753,
        "population": 457900
      },
      {
        "name": "Nazr\u0113t",
        "latitude": 8.55,
        "longitude": 39.2667,
        "population": 456900
      }
    ],
    "city_count": 231
  },
  "Finland": {
    "population_weighted": {
      "latitude": 61.2867,
      "longitude": 24.9367,
      "total_population": 4794310
    },
    "capital": {
      "name": "Helsinki",
      "latitude": 60.1695,
      "longitude": 24.9354,
      "population": 658864
    },
    "major_cities": [
      {
        "name": "Helsinki",
        "latitude": 60.1695,
        "longitude": 24.9354,
        "population": 658864
      },
      {
        "name": "Espoo",
        "latitude": 60.2052,
        "longitude": 24.6522,
        "population": 256760
      },
      {
        "name": "Tampere",
        "latitude": 61.4991,
        "longitude": 23.7871,
        "population": 244315
      },
      {
        "name": "Oulu",
        "latitude": 65.0124,
        "longitude": 25.4682,
        "population": 209648
      },
      {
        "name": "Turku",
        "latitude": 60.4515,
        "longitude": 22.2687,
        "population": 195301
      }
    ],
    "city_count": 95
  },
  "Fiji": {
    "population_weighted": {
      "latitude": -17.8508,
      "longitude": 178.1978,
      "total_population": 334403
    },
    "capital": {
      "name": "Nasinu",
      "latitude": -18.0705,
      "longitude": 178.5131,
      "population": 92043
    },
    "major_cities": [
      {
        "name": "Nasinu",
        "latitude": -18.0705,
        "longitude": 178.5131,
        "population": 92043
      },
      {
        "name": "Suva",
        "latitude": -18.1368,
        "longitude": 178.4253,
        "population": 77366
      },
      {
        "name": "Lautoka",
        "latitude": -17.6169,
        "longitude": 177.4505,
        "population": 52500
      },
      {
        "name": "Nadi",
        "latitude": -17.8031,
        "longitude": 177.4162,
        "population": 42284
      },
      {
        "name": "Labasa",
        "latitude": -16.4332,
        "longitude": 179.3645,
        "population": 27949
      }
    ],
    "city_count": 7
  },
  "France": {
    "population_weighted": {
      "latitude": 47.1923,
      "longitude": 2.8902,
      "total_population": 30929850
    },
    "capital": {
      "name": "Paris",
      "latitude": 48.8534,
      "longitude": 2.3488,
      "population": 2138551
    },
    "major_cities": [
      {
        "name": "Paris",
        "latitude": 48.8534,
        "longitude": 2.3488,
        "population": 2138551
      },
      {
        "name": "Marseille",
        "latitude": 43.297,
        "longitude": 5.3811,
        "population": 870731
      },
      {
        "name": "Lyon",
        "latitude": 45.7491,
        "longitude": 4.8479,
        "population": 522969
      },
      {
        "name": "Toulouse",
        "latitude": 43.6043,
        "longitude": 1.4437,
        "population": 493465
      },
      {
        "name": "Nice",
        "latitude": 43.7031,
        "longitude": 7.2661,
        "population": 342669
      }
    ],
    "city_count": 668
  },
  "Gabon": {
    "population_weighted": {
      "latitude": -0.056,
      "longitude": 10.2178,
      "total_population": 1731692
    },
    "capital": {
      "name": "Libreville",
      "latitude": 0.3924,
      "longitude": 9.4536,
      "population": 846090
    },
    "major_cities": [
      {
        "name": "Libreville",
        "latitude": 0.3924,
        "longitude": 9.4536,
        "population": 846090
      },
      {
        "name": "Port-Gentil",
        "latitude": -0.7193,
        "longitude": 8.7815,
        "population": 164018
      },
      {
        "name": "Franceville",
        "latitude": -1.6333,
        "longitude": 13.5836,
        "population": 132895
      },
      {
        "name": "Owendo",
        "latitude": 0.2912,
        "longitude": 9.5046,
        "population": 95313
      },
      {
        "name": "Oyem",
        "latitude": 1.5995,
        "longitude": 11.5793,
        "population": 72939
      }
    ],
    "city_count": 15
  },
  "United Kingdom": {
    "population_weighted": {
      "latitude": 52.4866,
      "longitude": -1.3716,
      "total_population": 57415644
    },
    "capital": {
      "name": "London",
      "latitude": 51.5085,
      "longitude": -0.1257,
      "population": 8961989
    },
    "major_cities": [
      {
        "name": "London",
        "latitude": 51.5085,
        "longitude": -0.1257,
        "population": 8961989
      },
      {
        "name": "Birmingham",
        "latitude": 52.4814,
        "longitude": -1.8998,
        "population": 1157603
      },
      {
        "name": "Glasgow",
        "latitude": 55.8651,
        "longitude": -4.2576,
        "population": 626410
      },
      {
        "name": "Manchester",
        "latitude": 53.4809,
        "longitude": -2.2374,
        "population": 568996
      },
      {
        "name": "Sheffield",
        "latitude": 53.383,
        "longitude": -1.4659,
        "population": 556500
      }
    ],
    "city_count": 858
  },
  "Georgia": {
    "population_weighted": {
      "latitude": 41.8403,
      "longitude": 43.9223,
      "total_population": 1893350
    },
    "capital": {
      "name": "Tbilisi",
      "latitude": 41.6914,
      "longitude": 44.8341,
      "population": 1049498
    },
    "major_cities": [
      {
        "name": "Tbilisi",
        "latitude": 41.6914,
        "longitude": 44.8341,
        "population": 1049498
      },
      {
        "name": "Batumi",
        "latitude": 41.6408,
        "longitude": 41.6306,
        "population": 186949
      },
      {
        "name": "Kutaisi",
        "latitude": 42.2679,
        "longitude": 42.6946,
        "population": 135201
      },
      {
        "name": "Rustavi",
        "latitude": 41.5627,
        "longitude": 44.9787,
        "population": 128249
      },
      {
        "name": "Sokhumi",
        "latitude": 43.007,
        "longitude": 40.9893,
        "population": 65439
      }
    ],
    "city_count": 17
  },
  "Ghana": {
    "population_weighted": {
      "latitude": 6.4003,
      "longitude": -0.9766,
      "total_population": 11200271
    },
    "capital": {
      "name": "Kumasi",
      "latitude": 6.6885,
      "longitude": -1.6244,
      "population": 2544530
    },
    "major_cities": [
      {
        "name": "Kumasi",
        "latitude": 6.6885,
        "longitude": -1.6244,
        "population": 2544530
      },
      {
        "name": "Accra",
        "latitude": 5.556,
        "longitude": -0.1969,
        "population": 1963264
      },
      {
        "name": "Tamale",
        "latitude": 9.4008,
        "longitude": -0.8393,
        "population": 464316
      },
      {
        "name": "Takoradi",
        "latitude": 4.8982,
        "longitude": -1.7603,
        "population": 389114
      },
      {
        "name": "Sekondi",
        "latitude": 4.9342,
        "longitude": -1.7145,
        "population": 285506
      }
    ],
    "city_count": 99
  },
  "Gambia": {
    "population_weighted": {
      "latitude": 13.4078,
      "longitude": -16.5858,
      "total_population": 1305981
    },
    "capital": {
      "name": "Serekunda",
      "latitude": 13.4383,
      "longitude": -16.6781,
      "population": 340000
    },
    "major_cities": [
      {
        "name": "Serekunda",
        "latitude": 13.4383,
        "longitude": -16.6781,
        "population": 340000
      },
      {
        "name": "Brikama",
        "latitude": 13.2714,
        "longitude": -16.6494,
        "population": 97233
      },
      {
        "name": "Bununka Kunda",
        "latitude": 13.4272,
        "longitude": -16.6853,
        "population": 66449
      },
      {
        "name": "Sukuta",
        "latitude": 13.4103,
        "longitude": -16.7081,
        "population": 56472
      },
      {
        "name": "Talinding",
        "latitude": 13.4256,
        "longitude": -16.6726,
        "population": 48687
      }
    ],
    "city_count": 33
  },
  "Guinea": {
    "population_weighted": {
      "latitude": 9.6975,
      "longitude": -12.8028,
      "total_population": 6200296
    },
    "capital": {
      "name": "Conakry",
      "latitude": 9.538,
      "longitude": -13.6773,
      "population": 1928389
    },
    "major_cities": [
      {
        "name": "Conakry",
        "latitude": 9.538,
        "longitude": -13.6773,
        "population": 1928389
      },
      {
        "name": "Camayenne",
        "latitude": 9.535,
        "longitude": -13.6878,
        "population": 1871242
      },
      {
        "name": "Nz\u00e9r\u00e9kor\u00e9",
        "latitude": 7.7562,
        "longitude": -8.8179,
        "population": 226426
      },
      {
        "name": "Kankan",
        "latitude": 10.3854,
        "longitude": -9.3057,
        "population": 221428
      },
      {
        "name": "Man\u00e9ah",
        "latitude": 9.7333,
        "longitude": -13.4167,
        "population": 194297
      }
    ],
    "city_count": 34
  },
  "Greece": {
    "population_weighted": {
      "latitude": 38.6371,
      "longitude": 23.4302,
      "total_population": 6187440
    },
    "capital": {
      "name": "Athens",
      "latitude": 37.9838,
      "longitude": 23.7278,
      "population": 664046
    },
    "major_cities": [
      {
        "name": "Athens",
        "latitude": 37.9838,
        "longitude": 23.7278,
        "population": 664046
      },
      {
        "name": "Thessalon\u00edki",
        "latitude": 40.6407,
        "longitude": 22.9349,
        "population": 317778
      },
      {
        "name": "P\u00e1tra",
        "latitude": 38.2462,
        "longitude": 21.7351,
        "population": 168034
      },
      {
        "name": "Piraeus",
        "latitude": 37.942,
        "longitude": 23.6462,
        "population": 163688
      },
      {
        "name": "L\u00e1risa",
        "latitude": 39.6285,
        "longitude": 22.4211,
        "population": 146926
      }
    ],
    "city_count": 115
  },
  "Guatemala": {
    "population_weighted": {
      "latitude": 14.7349,
      "longitude": -90.7063,
      "total_population": 7302205
    },
    "capital": {
      "name": "Guatemala City",
      "latitude": 14.6407,
      "longitude": -90.5133,
      "population": 994938
    },
    "major_cities": [
      {
        "name": "Guatemala City",
        "latitude": 14.6407,
        "longitude": -90.5133,
        "population": 994938
      },
      {
        "name": "Villa Nueva",
        "latitude": 14.5251,
        "longitude": -90.5854,
        "population": 618397
      },
      {
        "name": "Mixco",
        "latitude": 14.6308,
        "longitude": -90.6071,
        "population": 465773
      },
      {
        "name": "Cob\u00e1n",
        "latitude": 15.4703,
        "longitude": -90.3745,
        "population": 212047
      },
      {
        "name": "Quetzaltenango",
        "latitude": 14.8446,
        "longitude": -91.5232,
        "population": 180706
      }
    ],
    "city_count": 102
  },
  "Guinea-Bissau": {
    "population_weighted": {
      "latitude": 11.9155,
      "longitude": -15.3865,
      "total_population": 542001
    },
    "capital": {
      "name": "Bissau",
      "latitude": 11.8636,
      "longitude": -15.5977,
      "population": 439704
    },
    "major_cities": [
      {
        "name": "Bissau",
        "latitude": 11.8636,
        "longitude": -15.5977,
        "population": 439704
      },
      {
        "name": "Gab\u00fa",
        "latitude": 12.28,
        "longitude": -14.2222,
        "population": 49371
      },
      {
        "name": "Bafat\u00e1",
        "latitude": 12.1658,
        "longitude": -14.6617,
        "population": 33502
      },
      {
        "name": "Xitole",
        "latitude": 11.7333,
        "longitude": -14.8167,
        "population": 19424
      }
    ],
    "city_count": 4
  },
  "Guyana": {
    "population_weighted": {
      "latitude": 6.6296,
      "longitude": -58.1057,
      "total_population": 314746
    },
    "capital": {
      "name": "Georgetown",
      "latitude": 6.8045,
      "longitude": -58.1553,
      "population": 235017
    },
    "major_cities": [
      {
        "name": "Georgetown",
        "latitude": 6.8045,
        "longitude": -58.1553,
        "population": 235017
      },
      {
        "name": "Linden",
        "latitude": 6.0081,
        "longitude": -58.3072,
        "population": 44690
      },
      {
        "name": "New Amsterdam",
        "latitude": 6.2492,
        "longitude": -57.5158,
        "population": 35039
      }
    ],
    "city_count": 3
  },
  "Hong Kong": {
    "population_weighted": {
      "latitude": 22.3349,
      "longitude": 114.1519,
      "total_population": 24636429
    },
    "capital": {
      "name": "Hong Kong",
      "latitude": 22.2783,
      "longitude": 114.1747,
      "population": 7396076
    },
    "major_cities": [
      {
        "name": "Hong Kong",
        "latitude": 22.2783,
        "longitude": 114.1747,
        "population": 7396076
      },
      {
        "name": "New Territories",
        "latitude": 22.4244,
        "longitude": 114.111,
        "population": 3984077
      },
      {
        "name": "Kowloon",
        "latitude": 22.3167,
        "longitude": 114.1833,
        "population": 2232339
      },
      {
        "name": "Hong Kong Island",
        "latitude": 22.263,
        "longitude": 114.1842,
        "population": 1195529
      },
      {
        "name": "Victoria",
        "latitude": 22.2875,
        "longitude": 114.1442,
        "population": 956800
      }
    ],
    "city_count": 140
  },
  "Croatia": {
    "population_weighted": {
      "latitude": 45.3059,
      "longitude": 16.2064,
      "total_population": 1650334
    },
    "capital": {
      "name": "Zagreb",
      "latitude": 45.8144,
      "longitude": 15.978,
      "population": 663592
    },
    "major_cities": [
      {
        "name": "Zagreb",
        "latitude": 45.8144,
        "longitude": 15.978,
        "population": 663592
      },
      {
        "name": "Split",
        "latitude": 43.5089,
        "longitude": 16.4392,
        "population": 149830
      },
      {
        "name": "Rijeka",
        "latitude": 45.3267,
        "longitude": 14.4424,
        "population": 107964
      },
      {
        "name": "Osijek",
        "latitude": 45.5507,
        "longitude": 18.6942,
        "population": 75535
      },
      {
        "name": "Zadar",
        "latitude": 44.1158,
        "longitude": 15.2251,
        "population": 67309
      }
    ],
    "city_count": 26
  },
  "Haiti": {
    "population_weighted": {
      "latitude": 18.7368,
      "longitude": -72.5053,
      "total_population": 4337228
    },
    "capital": {
      "name": "Port-au-Prince",
      "latitude": 18.5435,
      "longitude": -72.3388,
      "population": 1234742
    },
    "major_cities": [
      {
        "name": "Port-au-Prince",
        "latitude": 18.5435,
        "longitude": -72.3388,
        "population": 1234742
      },
      {
        "name": "Carrefour",
        "latitude": 18.5411,
        "longitude": -72.3992,
        "population": 442156
      },
      {
        "name": "Delmas",
        "latitude": 18.5448,
        "longitude": -72.3004,
        "population": 382920
      },
      {
        "name": "Port-de-Paix",
        "latitude": 19.9398,
        "longitude": -72.8304,
        "population": 306217
      },
      {
        "name": "P\u00e9tionville",
        "latitude": 18.5125,
        "longitude": -72.2853,
        "population": 283052
      }
    ],
    "city_count": 27
  },
  "Hungary": {
    "population_weighted": {
      "latitude": 47.365,
      "longitude": 19.2432,
      "total_population": 7659790
    },
    "capital": {
      "name": "Budapest",
      "latitude": 47.4984,
      "longitude": 19.0404,
      "population": 1741041
    },
    "major_cities": [
      {
        "name": "Budapest",
        "latitude": 47.4984,
        "longitude": 19.0404,
        "population": 1741041
      },
      {
        "name": "Debrecen",
        "latitude": 47.5317,
        "longitude": 21.6244,
        "population": 202402
      },
      {
        "name": "Szeged",
        "latitude": 46.253,
        "longitude": 20.1482,
        "population": 160766
      },
      {
        "name": "Miskolc",
        "latitude": 48.1033,
        "longitude": 20.7781,
        "population": 154521
      },
      {
        "name": "P\u00e9cs",
        "latitude": 46.0762,
        "longitude": 18.2281,
        "population": 145347
      }
    ],
    "city_count": 131
  },
  "Indonesia": {
    "population_weighted": {
      "latitude": -4.795,
      "longitude": 109.4679,
      "total_population": 82215474
    },
    "capital": {
      "name": "Jakarta",
      "latitude": -6.2146,
      "longitude": 106.8451,
      "population": 8540121
    },
    "major_cities": [
      {
        "name": "Jakarta",
        "latitude": -6.2146,
        "longitude": 106.8451,
        "population": 8540121
      },
      {
        "name": "Surabaya",
        "latitude": -7.2492,
        "longitude": 112.7508,
        "population": 2874314
      },
      {
        "name": "Bekasi",
        "latitude": -6.2349,
        "longitude": 106.9896,
        "population": 2564940
      },
      {
        "name": "Bandung",
        "latitude": -6.9222,
        "longitude": 107.6069,
        "population": 2444160
      },
      {
        "name": "Medan",
        "latitude": 3.5833,
        "longitude": 98.6667,
        "population": 2435252
      }
    ],
    "city_count": 433
  },
  "Ireland": {
    "population_weighted": {
      "latitude": 53.135,
      "longitude": -6.8362,
      "total_population": 2522637
    },
    "capital": {
      "name": "Dublin",
      "latitude": 53.3331,
      "longitude": -6.2489,
      "population": 1024027
    },
    "major_cities": [
      {
        "name": "Dublin",
        "latitude": 53.3331,
        "longitude": -6.2489,
        "population": 1024027
      },
      {
        "name": "South Dublin",
        "latitude": 53.2903,
        "longitude": -6.3415,
        "population": 278749
      },
      {
        "name": "Cork",
        "latitude": 51.898,
        "longitude": -8.4706,
        "population": 190384
      },
      {
        "name": "Limerick",
        "latitude": 52.6647,
        "longitude": -8.6231,
        "population": 94192
      },
      {
        "name": "Galway",
        "latitude": 53.2724,
        "longitude": -9.051,
        "population": 83456
      }
    ],
    "city_count": 39
  },
  "Israel": {
    "population_weighted": {
      "latitude": 32.0722,
      "longitude": 34.9658,
      "total_population": 7761017
    },
    "capital": {
      "name": "Jerusalem",
      "latitude": 31.769,
      "longitude": 35.2163,
      "population": 971800
    },
    "major_cities": [
      {
        "name": "Jerusalem",
        "latitude": 31.769,
        "longitude": 35.2163,
        "population": 971800
      },
      {
        "name": "Tel Aviv",
        "latitude": 32.0809,
        "longitude": 34.7806,
        "population": 432892
      },
      {
        "name": "West Jerusalem",
        "latitude": 31.782,
        "longitude": 35.2196,
        "population": 400000
      },
      {
        "name": "Haifa",
        "latitude": 32.813,
        "longitude": 34.9993,
        "population": 285316
      },
      {
        "name": "Rishon LeTsiyyon",
        "latitude": 31.971,
        "longitude": 34.7894,
        "population": 258535
      }
    ],
    "city_count": 104
  },
  "India": {
    "population_weighted": {
      "latitude": 20.9822,
      "longitude": 78.3699,
      "total_population": 364413808
    },
    "capital": {
      "name": "Mumbai",
      "latitude": 19.0728,
      "longitude": 72.8826,
      "population": 12691836
    },
    "major_cities": [
      {
        "name": "Mumbai",
        "latitude": 19.0728,
        "longitude": 72.8826,
        "population": 12691836
      },
      {
        "name": "Delhi",
        "latitude": 28.6519,
        "longitude": 77.2315,
        "population": 11034555
      },
      {
        "name": "Bengaluru",
        "latitude": 12.9719,
        "longitude": 77.5937,
        "population": 8495492
      },
      {
        "name": "Hyderabad",
        "latitude": 17.384,
        "longitude": 78.4564,
        "population": 6993262
      },
      {
        "name": "Ahmedabad",
        "latitude": 23.0258,
        "longitude": 72.5873,
        "population": 6357693
      }
    ],
    "city_count": 3768
  },
  "Iraq": {
    "population_weighted": {
      "latitude": 33.5924,
      "longitude": 44.7918,
      "total_population": 27726896
    },
    "capital": {
      "name": "Baghdad",
      "latitude": 33.3406,
      "longitude": 44.4009,
      "population": 7216000
    },
    "major_cities": [
      {
        "name": "Baghdad",
        "latitude": 33.3406,
        "longitude": 44.4009,
        "population": 7216000
      },
      {
        "name": "Al Maw\u015fil al Jad\u012bdah",
        "latitude": 36.3327,
        "longitude": 43.1056,
        "population": 2065597
      },
      {
        "name": "Al Ba\u015frah al Qad\u012bmah",
        "latitude": 30.5032,
        "longitude": 47.8151,
        "population": 2015483
      },
      {
        "name": "Mosul",
        "latitude": 36.335,
        "longitude": 43.1189,
        "population": 1683000
      },
      {
        "name": "Erbil",
        "latitude": 36.1912,
        "longitude": 44.0094,
        "population": 1612700
      }
    ],
    "city_count": 80
  },
  "Iran": {
    "population_weighted": {
      "latitude": 34.4614,
      "longitude": 51.5364,
      "total_population": 45432361
    },
    "capital": {
      "name": "Tehran",
      "latitude": 35.6944,
      "longitude": 51.4215,
      "population": 7153309
    },
    "major_cities": [
      {
        "name": "Tehran",
        "latitude": 35.6944,
        "longitude": 51.4215,
        "population": 7153309
      },
      {
        "name": "Mashhad",
        "latitude": 36.2981,
        "longitude": 59.6057,
        "population": 2307177
      },
      {
        "name": "Isfahan",
        "latitude": 32.6525,
        "longitude": 51.6746,
        "population": 1547164
      },
      {
        "name": "Karaj",
        "latitude": 35.8327,
        "longitude": 50.9915,
        "population": 1448075
      },
      {
        "name": "Tabriz",
        "latitude": 38.08,
        "longitude": 46.2919,
        "population": 1424641
      }
    ],
    "city_count": 280
  },
  "Iceland": {
    "population_weighted": {
      "latitude": 64.2266,
      "longitude": -21.699,
      "total_population": 241721
    },
    "capital": {
      "name": "Reykjav\u00edk",
      "latitude": 64.1355,
      "longitude": -21.8954,
      "population": 118918
    },
    "major_cities": [
      {
        "name": "Reykjav\u00edk",
        "latitude": 64.1355,
        "longitude": -21.8954,
        "population": 118918
      },
      {
        "name": "K\u00f3pavogur",
        "latitude": 64.1123,
        "longitude": -21.913,
        "population": 37959
      },
      {
        "name": "Hafnarfj\u00f6r\u00f0ur",
        "latitude": 64.0671,
        "longitude": -21.9377,
        "population": 29971
      },
      {
        "name": "Reykjanesb\u00e6r",
        "latitude": 63.9981,
        "longitude": -22.5611,
        "population": 19724
      },
      {
        "name": "Akureyri",
        "latitude": 65.6835,
        "longitude": -18.0878,
        "population": 19219
      }
    ],
    "city_count": 6
  },
  "Italy": {
    "population_weighted": {
      "latitude": 42.638,
      "longitude": 12.1595,
      "total_population": 32438808
    },
    "capital": {
      "name": "Rome",
      "latitude": 41.8919,
      "longitude": 12.5113,
      "population": 2318895
    },
    "major_cities": [
      {
        "name": "Rome",
        "latitude": 41.8919,
        "longitude": 12.5113,
        "population": 2318895
      },
      {
        "name": "Milan",
        "latitude": 45.4643,
        "longitude": 9.1895,
        "population": 1371498
      },
      {
        "name": "Naples",
        "latitude": 40.8522,
        "longitude": 14.2681,
        "population": 909048
      },
      {
        "name": "Turin",
        "latitude": 45.0705,
        "longitude": 7.6868,
        "population": 847287
      },
      {
        "name": "Palermo",
        "latitude": 38.1166,
        "longitude": 13.3636,
        "population": 648260
      }
    ],
    "city_count": 631
  },
  "Jamaica": {
    "population_weighted": {
      "latitude": 18.0207,
      "longitude": -76.8971,
      "total_population": 2026063
    },
    "capital": {
      "name": "Kingston",
      "latitude": 17.997,
      "longitude": -76.7936,
      "population": 937700
    },
    "major_cities": [
      {
        "name": "Kingston",
        "latitude": 17.997,
        "longitude": -76.7936,
        "population": 937700
      },
      {
        "name": "New Kingston",
        "latitude": 18.0075,
        "longitude": -76.7832,
        "population": 583958
      },
      {
        "name": "Spanish Town",
        "latitude": 17.9911,
        "longitude": -76.9574,
        "population": 145018
      },
      {
        "name": "Portmore",
        "latitude": 17.971,
        "longitude": -76.8869,
        "population": 102861
      },
      {
        "name": "Montego Bay",
        "latitude": 18.4712,
        "longitude": -77.9188,
        "population": 82867
      }
    ],
    "city_count": 11
  },
  "Jordan": {
    "population_weighted": {
      "latitude": 32.0264,
      "longitude": 35.9592,
      "total_population": 4950859
    },
    "capital": {
      "name": "Amman",
      "latitude": 31.9552,
      "longitude": 35.945,
      "population": 1275857
    },
    "major_cities": [
      {
        "name": "Amman",
        "latitude": 31.9552,
        "longitude": 35.945,
        "population": 1275857
      },
      {
        "name": "Zarqa",
        "latitude": 32.0727,
        "longitude": 36.088,
        "population": 792665
      },
      {
        "name": "Irbid",
        "latitude": 32.5556,
        "longitude": 35.85,
        "population": 569068
      },
      {
        "name": "Russeifa",
        "latitude": 32.0178,
        "longitude": 36.0464,
        "population": 268237
      },
      {
        "name": "\u1e28ayy Khild\u0101",
        "latitude": 31.992,
        "longitude": 35.84,
        "population": 251000
      }
    ],
    "city_count": 34
  },
  "Japan": {
    "population_weighted": {
      "latitude": 35.5267,
      "longitude": 137.2665,
      "total_population": 141190676
    },
    "capital": {
      "name": "Tokyo",
      "latitude": 35.6895,
      "longitude": 139.6917,
      "population": 9733276
    },
    "major_cities": [
      {
        "name": "Tokyo",
        "latitude": 35.6895,
        "longitude": 139.6917,
        "population": 9733276
      },
      {
        "name": "Yokohama",
        "latitude": 35.4333,
        "longitude": 139.65,
        "population": 3777491
      },
      {
        "name": "Osaka",
        "latitude": 34.6938,
        "longitude": 135.5011,
        "population": 2753862
      },
      {
        "name": "Nagoya",
        "latitude": 35.1815,
        "longitude": 136.9064,
        "population": 2332176
      },
      {
        "name": "Sapporo",
        "latitude": 43.0667,
        "longitude": 141.35,
        "population": 1973832
      }
    ],
    "city_count": 1294
  },
  "Kenya": {
    "population_weighted": {
      "latitude": -0.8989,
      "longitude": 36.7376,
      "total_population": 16342133
    },
    "capital": {
      "name": "Nairobi",
      "latitude": -1.2833,
      "longitude": 36.8167,
      "population": 4397073
    },
    "major_cities": [
      {
        "name": "Nairobi",
        "latitude": -1.2833,
        "longitude": 36.8167,
        "population": 4397073
      },
      {
        "name": "Kakamega",
        "latitude": 0.2842,
        "longitude": 34.7523,
        "population": 1867579
      },
      {
        "name": "Mombasa",
        "latitude": -4.0547,
        "longitude": 39.6636,
        "population": 1208333
      },
      {
        "name": "Nakuru",
        "latitude": -0.3072,
        "longitude": 36.0722,
        "population": 570674
      },
      {
        "name": "Ruiru",
        "latitude": -1.1466,
        "longitude": 36.9609,
        "population": 490120
      }
    ],
    "city_count": 118
  },
  "Kyrgyzstan": {
    "population_weighted": {
      "latitude": 41.9415,
      "longitude": 73.9736,
      "total_population": 2186329
    },
    "capital": {
      "name": "Bishkek",
      "latitude": 42.87,
      "longitude": 74.59,
      "population": 900000
    },
    "major_cities": [
      {
        "name": "Bishkek",
        "latitude": 42.87,
        "longitude": 74.59,
        "population": 900000
      },
      {
        "name": "Osh",
        "latitude": 40.5283,
        "longitude": 72.7985,
        "population": 322164
      },
      {
        "name": "Jalal-Abad",
        "latitude": 40.945,
        "longitude": 72.9931,
        "population": 123239
      },
      {
        "name": "Karakol",
        "latitude": 42.4892,
        "longitude": 78.3936,
        "population": 84351
      },
      {
        "name": "Tokmok",
        "latitude": 42.8419,
        "longitude": 75.3015,
        "population": 71443
      }
    ],
    "city_count": 30
  },
  "Cambodia": {
    "population_weighted": {
      "latitude": 11.7587,
      "longitude": 104.6872,
      "total_population": 3818116
    },
    "capital": {
      "name": "Phnom Penh",
      "latitude": 11.5625,
      "longitude": 104.916,
      "population": 1573544
    },
    "major_cities": [
      {
        "name": "Phnom Penh",
        "latitude": 11.5625,
        "longitude": 104.916,
        "population": 1573544
      },
      {
        "name": "Takeo",
        "latitude": 10.9908,
        "longitude": 104.785,
        "population": 843931
      },
      {
        "name": "Siem Reap",
        "latitude": 13.3618,
        "longitude": 103.8606,
        "population": 139458
      },
      {
        "name": "Battambang",
        "latitude": 13.1027,
        "longitude": 103.1982,
        "population": 119251
      },
      {
        "name": "Paoy Paet",
        "latitude": 13.658,
        "longitude": 102.5636,
        "population": 98934
      }
    ],
    "city_count": 37
  },
  "South Korea": {
    "population_weighted": {
      "latitude": 36.5919,
      "longitude": 127.5133,
      "total_population": 46544957
    },
    "capital": {
      "name": "Seoul",
      "latitude": 37.566,
      "longitude": 126.9784,
      "population": 10349312
    },
    "major_cities": [
      {
        "name": "Seoul",
        "latitude": 37.566,
        "longitude": 126.9784,
        "population": 10349312
      },
      {
        "name": "Busan",
        "latitude": 35.1017,
        "longitude": 129.03,
        "population": 3343903
      },
      {
        "name": "Incheon",
        "latitude": 37.4565,
        "longitude": 126.7052,
        "population": 3039450
      },
      {
        "name": "Daegu",
        "latitude": 35.8703,
        "longitude": 128.5911,
        "population": 2365523
      },
      {
        "name": "Daejeon",
        "latitude": 36.3491,
        "longitude": 127.3849,
        "population": 1470336
      }
    ],
    "city_count": 138
  },
  "Kuwait": {
    "population_weighted": {
      "latitude": 29.1975,
      "longitude": 48.0567,
      "total_population": 1662180
    },
    "capital": {
      "name": "Al A\u1e29mad\u012b",
      "latitude": 29.0769,
      "longitude": 48.0839,
      "population": 637411
    },
    "major_cities": [
      {
        "name": "Al A\u1e29mad\u012b",
        "latitude": 29.0769,
        "longitude": 48.0839,
        "population": 637411
      },
      {
        "name": "\u1e28awall\u012b",
        "latitude": 29.3328,
        "longitude": 48.0286,
        "population": 164212
      },
      {
        "name": "As S\u0101lim\u012byah",
        "latitude": 29.3339,
        "longitude": 48.0761,
        "population": 147649
      },
      {
        "name": "\u015eab\u0101\u1e29 as S\u0101lim",
        "latitude": 29.2572,
        "longitude": 48.0572,
        "population": 139163
      },
      {
        "name": "Al Farw\u0101n\u012byah",
        "latitude": 29.2775,
        "longitude": 47.9586,
        "population": 86525
      }
    ],
    "city_count": 18
  },
  "Kazakhstan": {
    "population_weighted": {
      "latitude": 46.8212,
      "longitude": 70.043,
      "total_population": 10428538
    },
    "capital": {
      "name": "Almaty",
      "latitude": 43.2525,
      "longitude": 76.9115,
      "population": 1977011
    },
    "major_cities": [
      {
        "name": "Almaty",
        "latitude": 43.2525,
        "longitude": 76.9115,
        "population": 1977011
      },
      {
        "name": "Shymkent",
        "latitude": 42.3099,
        "longitude": 69.6004,
        "population": 1200000
      },
      {
        "name": "Aktobe",
        "latitude": 50.2797,
        "longitude": 57.2072,
        "population": 500757
      },
      {
        "name": "Karagandy",
        "latitude": 49.8019,
        "longitude": 73.1021,
        "population": 497777
      },
      {
        "name": "Taraz",
        "latitude": 42.898,
        "longitude": 71.3733,
        "population": 358153
      }
    ],
    "city_count": 80
  },
  "Laos": {
    "population_weighted": {
      "latitude": 17.8621,
      "longitude": 103.8847,
      "total_population": 880232
    },
    "capital": {
      "name": "Vientiane",
      "latitude": 17.9667,
      "longitude": 102.6,
      "population": 196731
    },
    "major_cities": [
      {
        "name": "Vientiane",
        "latitude": 17.9667,
        "longitude": 102.6,
        "population": 196731
      },
      {
        "name": "Savannakhet",
        "latitude": 16.5703,
        "longitude": 104.7622,
        "population": 125760
      },
      {
        "name": "Pakse",
        "latitude": 15.1202,
        "longitude": 105.799,
        "population": 88332
      },
      {
        "name": "Thakh\u00e8k",
        "latitude": 17.4103,
        "longitude": 104.8307,
        "population": 85000
      },
      {
        "name": "Ban Nap\u00e8",
        "latitude": 18.3053,
        "longitude": 105.0718,
        "population": 63268
      }
    ],
    "city_count": 16
  },
  "Lebanon": {
    "population_weighted": {
      "latitude": 33.86,
      "longitude": 35.5162,
      "total_population": 4365498
    },
    "capital": {
      "name": "Beirut",
      "latitude": 33.8933,
      "longitude": 35.5016,
      "population": 1916100
    },
    "major_cities": [
      {
        "name": "Beirut",
        "latitude": 33.8933,
        "longitude": 35.5016,
        "population": 1916100
      },
      {
        "name": "Ra\u2019s Bayr\u016bt",
        "latitude": 33.9,
        "longitude": 35.4833,
        "population": 1251739
      },
      {
        "name": "Tripoli",
        "latitude": 34.4335,
        "longitude": 35.8441,
        "population": 229398
      },
      {
        "name": "Sidon",
        "latitude": 33.5575,
        "longitude": 35.3715,
        "population": 163554
      },
      {
        "name": "Tyre",
        "latitude": 33.2733,
        "longitude": 35.1939,
        "population": 135204
      }
    ],
    "city_count": 15
  },
  "Sri Lanka": {
    "population_weighted": {
      "latitude": 7.2725,
      "longitude": 80.201,
      "total_population": 4027478
    },
    "capital": {
      "name": "Colombo",
      "latitude": 6.9355,
      "longitude": 79.8487,
      "population": 648034
    },
    "major_cities": [
      {
        "name": "Colombo",
        "latitude": 6.9355,
        "longitude": 79.8487,
        "population": 648034
      },
      {
        "name": "Dehiwala-Mount Lavinia",
        "latitude": 6.8402,
        "longitude": 79.8712,
        "population": 219827
      },
      {
        "name": "Maharagama",
        "latitude": 6.848,
        "longitude": 79.9265,
        "population": 195355
      },
      {
        "name": "Jaffna",
        "latitude": 9.6684,
        "longitude": 80.0074,
        "population": 169102
      },
      {
        "name": "Moratuwa",
        "latitude": 6.773,
        "longitude": 79.8816,
        "population": 168280
      }
    ],
    "city_count": 54
  },
  "Lesotho": {
    "population_weighted": {
      "latitude": -29.3813,
      "longitude": 27.6671,
      "total_population": 739682
    },
    "capital": {
      "name": "Maseru",
      "latitude": -29.3167,
      "longitude": 27.4833,
      "population": 359753
    },
    "major_cities": [
      {
        "name": "Maseru",
        "latitude": -29.3167,
        "longitude": 27.4833,
        "population": 359753
      },
      {
        "name": "Maputsoe",
        "latitude": -28.8866,
        "longitude": 27.8991,
        "population": 61916
      },
      {
        "name": "Mohale's Hoek",
        "latitude": -30.1514,
        "longitude": 27.4769,
        "population": 46593
      },
      {
        "name": "Mafeteng",
        "latitude": -29.823,
        "longitude": 27.2374,
        "population": 45287
      },
      {
        "name": "Hlotse",
        "latitude": -28.8718,
        "longitude": 28.045,
        "population": 43967
      }
    ],
    "city_count": 11
  },
  "Lithuania": {
    "population_weighted": {
      "latitude": 55.0413,
      "longitude": 24.1763,
      "total_population": 2103133
    },
    "capital": {
      "name": "Vilnius",
      "latitude": 54.6892,
      "longitude": 25.2798,
      "population": 542366
    },
    "major_cities": [
      {
        "name": "Vilnius",
        "latitude": 54.6892,
        "longitude": 25.2798,
        "population": 542366
      },
      {
        "name": "Kaunas",
        "latitude": 54.9016,
        "longitude": 23.9091,
        "population": 289380
      },
      {
        "name": "Klaip\u0117da",
        "latitude": 55.7068,
        "longitude": 21.1391,
        "population": 172292
      },
      {
        "name": "\u0160iauliai",
        "latitude": 55.9333,
        "longitude": 23.3167,
        "population": 99462
      },
      {
        "name": "Panev\u0117\u017eys",
        "latitude": 55.7319,
        "longitude": 24.3598,
        "population": 85885
      }
    ],
    "city_count": 36
  },
  "Luxembourg": {
    "population_weighted": {
      "latitude": 49.5603,
      "longitude": 6.0841,
      "total_population": 131322
    },
    "capital": {
      "name": "Luxembourg",
      "latitude": 49.6098,
      "longitude": 6.1327,
      "population": 76684
    },
    "major_cities": [
      {
        "name": "Luxembourg",
        "latitude": 49.6098,
        "longitude": 6.1327,
        "population": 76684
      },
      {
        "name": "Esch-sur-Alzette",
        "latitude": 49.4958,
        "longitude": 5.9806,
        "population": 36625
      },
      {
        "name": "Dudelange",
        "latitude": 49.4806,
        "longitude": 6.0875,
        "population": 18013
      }
    ],
    "city_count": 3
  },
  "Latvia": {
    "population_weighted": {
      "latitude": 56.8466,
      "longitude": 24.1305,
      "total_population": 1206422
    },
    "capital": {
      "name": "Riga",
      "latitude": 56.946,
      "longitude": 24.1059,
      "population": 742572
    },
    "major_cities": [
      {
        "name": "Riga",
        "latitude": 56.946,
        "longitude": 24.1059,
        "population": 742572
      },
      {
        "name": "Daugavpils",
        "latitude": 55.8833,
        "longitude": 26.5333,
        "population": 78126
      },
      {
        "name": "Liep\u0101ja",
        "latitude": 56.5047,
        "longitude": 21.0109,
        "population": 67421
      },
      {
        "name": "Jelgava",
        "latitude": 56.65,
        "longitude": 23.7128,
        "population": 54834
      },
      {
        "name": "J\u016brmala",
        "latitude": 56.968,
        "longitude": 23.7704,
        "population": 52001
      }
    ],
    "city_count": 15
  },
  "Libya": {
    "population_weighted": {
      "latitude": 31.9963,
      "longitude": 15.464,
      "total_population": 6105792
    },
    "capital": {
      "name": "Tripoli",
      "latitude": 32.8874,
      "longitude": 13.1873,
      "population": 1302947
    },
    "major_cities": [
      {
        "name": "Tripoli",
        "latitude": 32.8874,
        "longitude": 13.1873,
        "population": 1302947
      },
      {
        "name": "Benghazi",
        "latitude": 32.1149,
        "longitude": 20.0686,
        "population": 757490
      },
      {
        "name": "Misratah",
        "latitude": 32.3753,
        "longitude": 15.0925,
        "population": 355657
      },
      {
        "name": "Zliten",
        "latitude": 32.4674,
        "longitude": 14.5687,
        "population": 203790
      },
      {
        "name": "Al Khums",
        "latitude": 32.6486,
        "longitude": 14.2619,
        "population": 201943
      }
    ],
    "city_count": 59
  },
  "Morocco": {
    "population_weighted": {
      "latitude": 33.4318,
      "longitude": -6.6506,
      "total_population": 22785546
    },
    "capital": {
      "name": "Casablanca",
      "latitude": 33.5883,
      "longitude": -7.6114,
      "population": 3665954
    },
    "major_cities": [
      {
        "name": "Casablanca",
        "latitude": 33.5883,
        "longitude": -7.6114,
        "population": 3665954
      },
      {
        "name": "Rabat",
        "latitude": 34.0132,
        "longitude": -6.8326,
        "population": 1655753
      },
      {
        "name": "Fes",
        "latitude": 34.0331,
        "longitude": -5.0003,
        "population": 1191905
      },
      {
        "name": "Tangier",
        "latitude": 35.7673,
        "longitude": -5.7998,
        "population": 1035141
      },
      {
        "name": "Marrakesh",
        "latitude": 31.6342,
        "longitude": -7.9999,
        "population": 995871
      }
    ],
    "city_count": 179
  },
  "Montenegro": {
    "population_weighted": {
      "latitude": 42.5334,
      "longitude": 19.1651,
      "total_population": 400353
    },
    "capital": {
      "name": "Podgorica",
      "latitude": 42.4412,
      "longitude": 19.2631,
      "population": 236852
    },
    "major_cities": [
      {
        "name": "Podgorica",
        "latitude": 42.4412,
        "longitude": 19.2631,
        "population": 236852
      },
      {
        "name": "Nik\u0161i\u0107",
        "latitude": 42.7731,
        "longitude": 18.9445,
        "population": 58212
      },
      {
        "name": "Herceg Novi",
        "latitude": 42.4531,
        "longitude": 18.5375,
        "population": 19536
      },
      {
        "name": "Pljevlja",
        "latitude": 43.3567,
        "longitude": 19.3584,
        "population": 19489
      },
      {
        "name": "Budva",
        "latitude": 42.2872,
        "longitude": 18.8392,
        "population": 18000
      }
    ],
    "city_count": 8
  },
  "Madagascar": {
    "population_weighted": {
      "latitude": -18.8319,
      "longitude": 47.478,
      "total_population": 5991519
    },
    "capital": {
      "name": "Antananarivo",
      "latitude": -18.9137,
      "longitude": 47.5361,
      "population": 1349501
    },
    "major_cities": [
      {
        "name": "Antananarivo",
        "latitude": -18.9137,
        "longitude": 47.5361,
        "population": 1349501
      },
      {
        "name": "Toamasina",
        "latitude": -18.1492,
        "longitude": 49.4023,
        "population": 345107
      },
      {
        "name": "Antsirabe",
        "latitude": -19.8659,
        "longitude": 47.0333,
        "population": 260907
      },
      {
        "name": "Mahajanga",
        "latitude": -15.7167,
        "longitude": 46.3167,
        "population": 260556
      },
      {
        "name": "Fianarantsoa",
        "latitude": -21.4527,
        "longitude": 47.0857,
        "population": 203105
      }
    ],
    "city_count": 101
  },
  "North Macedonia": {
    "population_weighted": {
      "latitude": 41.7975,
      "longitude": 21.471,
      "total_population": 1754303
    },
    "capital": {
      "name": "Skopje",
      "latitude": 41.9965,
      "longitude": 21.4314,
      "population": 474889
    },
    "major_cities": [
      {
        "name": "Skopje",
        "latitude": 41.9965,
        "longitude": 21.4314,
        "population": 474889
      },
      {
        "name": "Kumanovo",
        "latitude": 42.1328,
        "longitude": 21.7158,
        "population": 75051
      },
      {
        "name": "Prilep",
        "latitude": 41.3456,
        "longitude": 21.5537,
        "population": 73814
      },
      {
        "name": "Bitola",
        "latitude": 41.0323,
        "longitude": 21.3355,
        "population": 69287
      },
      {
        "name": "\u010cair",
        "latitude": 42.0153,
        "longitude": 21.4411,
        "population": 64773
      }
    ],
    "city_count": 38
  },
  "Mali": {
    "population_weighted": {
      "latitude": 12.954,
      "longitude": -7.1917,
      "total_population": 7553319
    },
    "capital": {
      "name": "Bamako",
      "latitude": 12.6091,
      "longitude": -7.9752,
      "population": 4227569
    },
    "major_cities": [
      {
        "name": "Bamako",
        "latitude": 12.6091,
        "longitude": -7.9752,
        "population": 4227569
      },
      {
        "name": "Sikasso",
        "latitude": 11.3176,
        "longitude": -5.6665,
        "population": 349324
      },
      {
        "name": "Koutiala",
        "latitude": 12.3872,
        "longitude": -5.4651,
        "population": 218031
      },
      {
        "name": "S\u00e9gou",
        "latitude": 13.4403,
        "longitude": -6.2595,
        "population": 205787
      },
      {
        "name": "Kayes",
        "latitude": 14.4478,
        "longitude": -11.4439,
        "population": 194716
      }
    ],
    "city_count": 55
  },
  "Myanmar": {
    "population_weighted": {
      "latitude": 18.95,
      "longitude": 96.1984,
      "total_population": 16319600
    },
    "capital": {
      "name": "Yangon",
      "latitude": 16.8053,
      "longitude": 96.1561,
      "population": 4477638
    },
    "major_cities": [
      {
        "name": "Yangon",
        "latitude": 16.8053,
        "longitude": 96.1561,
        "population": 4477638
      },
      {
        "name": "Mandalay",
        "latitude": 21.9747,
        "longitude": 96.0836,
        "population": 1208099
      },
      {
        "name": "Nay Pyi Taw",
        "latitude": 19.745,
        "longitude": 96.1297,
        "population": 925000
      },
      {
        "name": "Mawlamyine",
        "latitude": 16.4905,
        "longitude": 97.6282,
        "population": 438861
      },
      {
        "name": "Kalemyo",
        "latitude": 23.1901,
        "longitude": 94.064,
        "population": 348573
      }
    ],
    "city_count": 131
  },
  "Mongolia": {
    "population_weighted": {
      "latitude": 47.9415,
      "longitude": 105.3292,
      "total_population": 1560912
    },
    "capital": {
      "name": "Ulan Bator",
      "latitude": 47.9077,
      "longitude": 106.8832,
      "population": 844818
    },
    "major_cities": [
      {
        "name": "Ulan Bator",
        "latitude": 47.9077,
        "longitude": 106.8832,
        "population": 844818
      },
      {
        "name": "Erdenet",
        "latitude": 49.0333,
        "longitude": 104.0833,
        "population": 97814
      },
      {
        "name": "Darhan",
        "latitude": 49.4867,
        "longitude": 105.9228,
        "population": 83883
      },
      {
        "name": "Choibalsan",
        "latitude": 48.0726,
        "longitude": 114.5326,
        "population": 44835
      },
      {
        "name": "Nalayh",
        "latitude": 47.7667,
        "longitude": 107.2833,
        "population": 39579
      }
    ],
    "city_count": 24
  },
  "Mauritania": {
    "population_weighted": {
      "latitude": 18.0881,
      "longitude": -14.7339,
      "total_population": 2020813
    },
    "capital": {
      "name": "Nouakchott",
      "latitude": 18.0858,
      "longitude": -15.9785,
      "population": 1184530
    },
    "major_cities": [
      {
        "name": "Nouakchott",
        "latitude": 18.0858,
        "longitude": -15.9785,
        "population": 1184530
      },
      {
        "name": "Nouadhibou",
        "latitude": 20.9419,
        "longitude": -17.0384,
        "population": 146048
      },
      {
        "name": "Kiffa",
        "latitude": 16.6207,
        "longitude": -11.4021,
        "population": 62051
      },
      {
        "name": "Dar Naim",
        "latitude": 18.1081,
        "longitude": -15.9267,
        "population": 61089
      },
      {
        "name": "N\u00e9ma",
        "latitude": 16.617,
        "longitude": -7.2565,
        "population": 60000
      }
    ],
    "city_count": 22
  },
  "Malta": {
    "population_weighted": {
      "latitude": 35.9091,
      "longitude": 14.4636,
      "total_population": 141714
    },
    "capital": {
      "name": "San Pawl il-Ba\u0127ar",
      "latitude": 35.9506,
      "longitude": 14.4156,
      "population": 32042
    },
    "major_cities": [
      {
        "name": "San Pawl il-Ba\u0127ar",
        "latitude": 35.9506,
        "longitude": 14.4156,
        "population": 32042
      },
      {
        "name": "Birkirkara",
        "latitude": 35.8971,
        "longitude": 14.4611,
        "population": 24356
      },
      {
        "name": "Mosta",
        "latitude": 35.9094,
        "longitude": 14.4257,
        "population": 23482
      },
      {
        "name": "Sliema",
        "latitude": 35.9125,
        "longitude": 14.5017,
        "population": 22591
      },
      {
        "name": "Qormi",
        "latitude": 35.876,
        "longitude": 14.472,
        "population": 16801
      }
    ],
    "city_count": 7
  },
  "Mauritius": {
    "population_weighted": {
      "latitude": -20.2283,
      "longitude": 57.5133,
      "total_population": 701493
    },
    "capital": {
      "name": "Port Louis",
      "latitude": -20.1619,
      "longitude": 57.4989,
      "population": 155226
    },
    "major_cities": [
      {
        "name": "Port Louis",
        "latitude": -20.1619,
        "longitude": 57.4989,
        "population": 155226
      },
      {
        "name": "Vacoas",
        "latitude": -20.2981,
        "longitude": 57.4783,
        "population": 115289
      },
      {
        "name": "Beau Bassin-Rose Hill",
        "latitude": -20.2333,
        "longitude": 57.4661,
        "population": 111355
      },
      {
        "name": "Curepipe",
        "latitude": -20.3163,
        "longitude": 57.5259,
        "population": 78618
      },
      {
        "name": "Quatre Bornes",
        "latitude": -20.2638,
        "longitude": 57.4791,
        "population": 77308
      }
    ],
    "city_count": 14
  },
  "Maldives": {
    "population_weighted": {
      "latitude": 4.1752,
      "longitude": 73.5092,
      "total_population": 103693
    },
    "capital": {
      "name": "Male",
      "latitude": 4.1752,
      "longitude": 73.5092,
      "population": 103693
    },
    "major_cities": [
      {
        "name": "Male",
        "latitude": 4.1752,
        "longitude": 73.5092,
        "population": 103693
      }
    ],
    "city_count": 1
  },
  "Malawi": {
    "population_weighted": {
      "latitude": -14.2431,
      "longitude": 34.3425,
      "total_population": 3030905
    },
    "capital": {
      "name": "Lilongwe",
      "latitude": -13.9669,
      "longitude": 33.7873,
      "population": 1115815
    },
    "major_cities": [
      {
        "name": "Lilongwe",
        "latitude": -13.9669,
        "longitude": 33.7873,
        "population": 1115815
      },
      {
        "name": "Blantyre",
        "latitude": -15.785,
        "longitude": 35.0085,
        "population": 902588
      },
      {
        "name": "Mzuzu",
        "latitude": -11.4656,
        "longitude": 34.0207,
        "population": 249564
      },
      {
        "name": "Zomba",
        "latitude": -15.386,
        "longitude": 35.3188,
        "population": 118440
      },
      {
        "name": "Karonga",
        "latitude": -9.9333,
        "longitude": 33.9333,
        "population": 69486
      }
    ],
    "city_count": 23
  },
  "Mexico": {
    "population_weighted": {
      "latitude": 21.5935,
      "longitude": -100.649,
      "total_population": 90850759
    },
    "capital": {
      "name": "Mexico City",
      "latitude": 19.4285,
      "longitude": -99.1277,
      "population": 12294193
    },