{
  "United States": {
    "population_weighted": {"latitude": 37.09, "longitude": -95.71, "name": "USA Population Center"}
  },
  "China": {
    "population_weighted": {"latitude": 35.86, "longitude": 104.19, "name": "China Population Center"}
  },
  "India": {
    "population_weighted": {"latitude": 23.59, "longitude": 78.96, "name": "India Population Center"}
  },
  "Brazil": {
    "population_weighted": {"latitude": -14.24, "longitude": -51.93, "name": "Brazil Population Center"}
  },
  "Indonesia": {
    "population_weighted": {"latitude": -2.55, "longitude": 118.01, "name": "Indonesia Population Center"}
  },
  "Pakistan": {
    "population_weighted": {"latitude": 30.38, "longitude": 69.35, "name": "Pakistan Population Center"}
  },
  "Nigeria": {
    "population_weighted": {"latitude": 9.08, "longitude": 8.68, "name": "Nigeria Population Center"}
  },
  "Bangladesh": {
    "population_weighted": {"latitude": 23.68, "longitude": 90.36, "name": "Bangladesh Population Center"}
  },
  "Russia": {
    "population_weighted": {"latitude": 61.52, "longitude": 105.32, "name": "Russia Population Center"}
  },
  "Mexico": {
    "population_weighted": {"latitude": 23.63, "longitude": -102.55, "name": "Mexico Population Center"}
  },
  "Japan": {
    "population_weighted": {"latitude": 36.20, "longitude": 138.25, "name": "Japan Population Center"}
  },
  "Ethiopia": {
    "population_weighted": {"latitude": 9.15, "longitude": 40.49, "name": "Ethiopia Population Center"}
  },
  "Philippines": {
    "population_weighted": {"latitude": 12.88, "longitude": 121.77, "name": "Philippines Population Center"}
  },
  "Egypt": {
    "population_weighted": {"latitude": 26.82, "longitude": 30.80, "name": "Egypt Population Center"}
  },
  "Vietnam": {
    "population_weighted": {"latitude": 14.06, "longitude": 108.28, "name": "Vietnam Population Center"}
  },
  "Turkey": {
    "population_weighted": {"latitude": 38.96, "longitude": 35.24, "name": "Turkey Population Center"}
  },
  "Iran": {
    "population_weighted": {"latitude": 32.43, "longitude": 53.69, "name": "Iran Population Center"}
  },
  "Germany": {
    "population_weighted": {"latitude": 51.17, "longitude": 10.45, "name": "Germany Population Center"}
  },
  "Thailand": {
    "population_weighted": {"latitude": 15.87, "longitude": 100.99, "name": "Thailand Population Center"}
  },
  "United Kingdom": {
    "population_weighted": {"latitude": 55.38, "longitude": -3.44, "name": "UK Population Center"}
  },
  "France": {
    "population_weighted": {"latitude": 46.23, "longitude": 2.21, "name": "France Population Center"}
  },
  "Italy": {
    "population_weighted": {"latitude": 41.87, "longitude": 12.57, "name": "Italy Population Center"}
  },
  "South Africa": {
    "population_weighted": {"latitude": -30.56, "longitude": 22.94, "name": "South Africa Population Center"}
  },
  "Tanzania": {
    "population_weighted": {"latitude": -6.37, "longitude": 34.89, "name": "Tanzania Population Center"}
  },
  "Myanmar": {
    "population_weighted": {"latitude": 21.91, "longitude": 95.96, "name": "Myanmar Population Center"}
  },
  "Kenya": {
    "population_weighted": {"latitude": -0.02, "longitude": 37.91, "name": "Kenya Population Center"}
  },
  "South Korea": {
    "population_weighted": {"latitude": 35.91, "longitude": 127.77, "name": "South Korea Population Center"}
  },
  "Colombia": {
    "population_weighted": {"latitude": 4.57, "longitude": -74.30, "name": "Colombia Population Center"}
  },
  "Spain": {
    "population_weighted": {"latitude": 40.46, "longitude": -3.75, "name": "Spain Population Center"}
  },
  "Argentina": {
    "population_weighted": {"latitude": -38.42, "longitude": -63.62, "name": "Argentina Population Center"}
  },
  "Algeria": {
    "population_weighted": {"latitude": 28.03, "longitude": 1.66, "name": "Algeria Population Center"}
  },
  "Sudan": {
    "population_weighted": {"latitude": 12.86, "longitude": 30.22, "name": "Sudan Population Center"}
  },
  "Ukraine": {
    "population_weighted": {"latitude": 48.38, "longitude": 31.17, "name": "Ukraine Population Center"}
  },
  "Uganda": {
    "population_weighted": {"latitude": 1.37, "longitude": 32.29, "name": "Uganda Population Center"}
  },
  "Iraq": {
    "population_weighted": {"latitude": 33.22, "longitude": 43.68, "name": "Iraq Population Center"}
  },
  "Poland": {
    "population_weighted": {"latitude": 51.92, "longitude": 19.15, "name": "Poland Population Center"}
  },
  "Canada": {
    "population_weighted": {"latitude": 56.13, "longitude": -106.35, "name": "Canada Population Center"}
  },
  "Morocco": {
    "population_weighted": {"latitude": 31.79, "longitude": -7.09, "name": "Morocco Population Center"}
  },
  "Saudi Arabia": {
    "population_weighted": {"latitude": 23.89, "longitude": 45.08, "name": "Saudi Arabia Population Center"}
  },
  "Uzbekistan": {
    "population_weighted": {"latitude": 41.38, "longitude": 64.59, "name": "Uzbekistan Population Center"}
  },
  "Peru": {
    "population_weighted": {"latitude": -9.19, "longitude": -75.02, "name": "Peru Population Center"}
  },
  "Angola": {
    "population_weighted": {"latitude": -11.20, "longitude": 17.87, "name": "Angola Population Center"}
  },
  "Malaysia": {
    "population_weighted": {"latitude": 4.21, "longitude": 101.98, "name": "Malaysia Population Center"}
  },
  "Mozambique": {
    "population_weighted": {"latitude": -18.67, "longitude": 35.53, "name": "Mozambique Population Center"}
  },
  "Ghana": {
    "population_weighted": {"latitude": 7.95, "longitude": -1.02, "name": "Ghana Population Center"}
  },
  "Yemen": {
    "population_weighted": {"latitude": 15.55, "longitude": 48.52, "name": "Yemen Population Center"}
  },
  "Nepal": {
    "population_weighted": {"latitude": 28.39, "longitude": 84.12, "name": "Nepal Population Center"}
  },
  "Venezuela": {
    "population_weighted": {"latitude": 6.42, "longitude": -66.59, "name": "Venezuela Population Center"}
  },
  "Madagascar": {
    "population_weighted": {"latitude": -18.77, "longitude": 46.87, "name": "Madagascar Population Center"}
  },
  "Australia": {
    "population_weighted": {"latitude": -25.27, "longitude": 133.78, "name": "Australia Population Center"}
  }
}

